[
  {
    "name": "โรงแรม  ระยอง-ล้านนา",
    "name_en": "Rayong-Lanna Hotel",
    "latitude": 12.6801454734802,
    "longitude": 101.25276124115,
    "description": "ถนนยมจินดา ต.ท่าประดู่ อ.เมืองระยอง จ.ระยอง 21000",
    "description_en": "Yomchinda Rd., Tha Pradu, Muang Rayong, Rayong, 21000"
  },
  {
    "name": "โรงแรม  อุดรแอร์พอร์ท",
    "name_en": "UDONAIRPORT HOTEL",
    "latitude": 17.39508,
    "longitude": 102.76577,
    "description": "โรงแรม มาตรฐาน ราคาประหยัด  \nA hotel up to international standards with emphasis on impressive service and economical room rates",
    "description_en": "Chiang Phin, Muang Udon Thani, Udon Thani, 41000"
  },
  {
    "name": "โรงแรม  เดอะ ลิวาเบิล",
    "name_en": "THE LIVABLE Hotel",
    "latitude": 17.1972911756014,
    "longitude": 104.090577363968,
    "description": "ถนนนิตตะโย ต.ธาตุเชิงชุม อ.เมืองสกลนคร จ.สกลนคร 47000",
    "description_en": "Nittayo Rd., That Choeng Chum, Mueang Sakon Nakhon, Sakon Nakhon 47000"
  },
  {
    "name": "โรงแรม  เบลลา วิลล่า",
    "name_en": "Bella Villa",
    "latitude": 12.9481333494186,
    "longitude": 100.897471904755,
    "description": "8/82 ม.6 ต.นาเกลือ อ.บางละมุง จ.ชลบุรี 20260",
    "description_en": "8/82 M.6 Na Kluea Bang La Mung Chon Buri 20260"
  },
  {
    "name": "โรงแรม 13 เหรียญ งามวงศ์วาน",
    "name_en": "13 Coins Airport Hotel Ngam Wong Wan (Domestic)",
    "latitude": 13.8507894325256,
    "longitude": 100.534932643127,
    "description": "ซอยภูมิแลนด์ ต.บางเขน อ.เมืองนนทบุรี จ.นนทบุรี 11000",
    "description_en": "Soi Phum Land, Bang Khen, Muang Nontaburi, Nonthaburi, 11000"
  },
  {
    "name": "โรงแรม 13 เหรียญ บางใหญ่",
    "name_en": "13 Coins Bang Yai Hotel",
    "latitude": 13.8753739735468,
    "longitude": 100.414647459984,
    "description": "ต.เสาธงหิน อ.บางใหญ่ จ.นนทบุรี 11140",
    "description_en": "Sao Thong Hin, Bang Yai, Nonthaburi 11140"
  },
  {
    "name": "โรงแรม 13 เหรียญ บางใหญ่ นนทบุรี",
    "name_en": "13 Coins Hotel Bang Yai",
    "latitude": 13.8753139972687,
    "longitude": 100.41291475296,
    "description": "56/2 ม.6 ต.เสาธงหิน อ.บางใหญ่ จ.นนทบุรี 11110",
    "description_en": "56/2 Moo 6  Sao Thong Hin Bang Yai Nonthaburi 11110"
  },
  {
    "name": "โรงแรม 13 เหรียญ แอร์พอร์ต มีนบุรี",
    "name_en": "13 Coins Airport Hotel Min Buri",
    "latitude": 13.7992626428604,
    "longitude": 100.718590021133,
    "description": "66/2-5 Ramkhamhaeng Road (Sukapiban 3) between Soi 172-174, Minburi 10510 Bangkok 10510",
    "description_en": "66/2-5 Ramkhamhaeng Road (Sukapiban 3) between Soi 172-174, Minburi 10510 Bangkok 10510"
  },
  {
    "name": "โรงแรม 137 พิลลาร์ สวีท กรุงเทพ",
    "name_en": "137 Pillars Suites & Residences Bangkok",
    "latitude": 13.737480486953,
    "longitude": 100.572357326746,
    "description": "ซอยพร้อมศักดิ์ แขวงคลองตันเหนือ เขตวัฒนา กรุงเทพมหานคร 10250",
    "description_en": "Soi Phromsak, Khlong Tan Nuea, Vadhana, Bangkok 10250"
  },
  {
    "name": "โรงแรม 191 อิน (หาดป่าตอง)",
    "name_en": "191 Inn (Patong Beach)",
    "latitude": 7.88328748502239,
    "longitude": 98.3012464642525,
    "description": "ถนนนาใน ต.ป่าตอง อ.กะทู้ จ.ภูเก็ต 83150",
    "description_en": "Na Nai Rd., Pa Tong, Kathu, Phuket 83150"
  },
  {
    "name": "โรงแรม 22 ซีซั่น",
    "name_en": "22 Seasons Hotel",
    "latitude": 8.08414082819955,
    "longitude": 98.9031703770161,
    "description": "ต.ปากน้ำ อ.เมืองกระบี่ จ.กระบี่ 81000",
    "description_en": "Pak Nam, Mueang Krabi, Krabi 81000"
  },
  {
    "name": "โรงแรม 24 ชม.(ลพบุรี)",
    "name_en": "24 Hr.Hotel (Lopburi)",
    "latitude": 14.7642928960299,
    "longitude": 100.716465711594,
    "description": "ถนนพหลโยธิน ต.นิคมสร้างตนเอง อ.เมืองลพบุรี จ.ลพบุรี 15000",
    "description_en": "Phahon Yothin Rd., Nikhom Sang Ton-eng, Muang Lopburi, Lop Buri 15000"
  },
  {
    "name": "โรงแรม 24 แอทโฮม",
    "name_en": "24@HOME HOTEL",
    "latitude": 13.8968737190349,
    "longitude": 100.516051054001,
    "description": "201 หมู่ที่ 7 ถนนเลี่ยงเมืองปากเกร็ด ต.บางตลาด อ.ปากเกร็ด จ.นนทบุรี 11120",
    "description_en": "Pak Kret Bypass Rd., Bang Talat, Pak Kret, Nonthaburi 11120"
  },
  {
    "name": "โรงแรม 333 เฮ้าส์",
    "name_en": "333 House Hotel",
    "latitude": 15.4038631919971,
    "longitude": 100.029708892107,
    "description": "ต.สะแกกรัง อ.เมืองอุทัยธานี จ.อุทัยธานี 61000",
    "description_en": "Sakae Krang, Mueang Uthai Thani, Uthai Thani 61000"
  },
  {
    "name": "โรงแรม 39 อินน์",
    "name_en": "39 Inn Hotel",
    "latitude": 13.6530450991341,
    "longitude": 100.525654703379,
    "description": "ต.บางพึ่ง อ.พระประแดง จ.สมุทรปราการ 10130",
    "description_en": "Bang Phueng, Phra Pradaeng, Samut Prakan 10130"
  },
  {
    "name": "โรงแรม 42 c",
    "name_en": "โรงแรม 42 c",
    "latitude": 15.720529,
    "longitude": 100.117233,
    "description": "ถนนเทพคีรี ปากน้ำโพ เมืองนครสวรรค์ จ.นครสวรรค์ 60000",
    "description_en": "Thep Khiri Rd., Pak Nam Pho, Mueang Nakhon Sawan, Nakhon Sawan 60000"
  },
  {
    "name": "โรงแรม 49 รีสอร์ท",
    "name_en": "49 Resort hotel",
    "latitude": 16.1911516330361,
    "longitude": 103.232882008488,
    "description": "ต.ท่าสองคอน อ.เมืองมหาสารคาม จ.มหาสารคาม 44000",
    "description_en": "Tha Song Khon Muang Mahasarakham Maha Sarakham 44000"
  },
  {
    "name": "โรงแรม 53 อินน์",
    "name_en": "53 Inn Hotel",
    "latitude": 14.0011387680175,
    "longitude": 99.9849776923657,
    "description": "ต.กำแพงแสน อ.กำแพงแสน จ.นครปฐม 73140",
    "description_en": "Kam Pang San, Kam Paeng Saen, Nakhon Pathom 73140"
  },
  {
    "name": "โรงแรม 56 สุรวงศ์ กรุงเทพฯ",
    "name_en": "56 Surawong Hotel Bangkok",
    "latitude": 13.729935,
    "longitude": 100.531006,
    "description": "ถนนสุรวงศ์ แขวงสี่พระยา เขตบางรัก กรุงเทพมหานคร 10500",
    "description_en": "Surawong Rd., Si Phraya, Bang Rak, Bangkok 10500 Thailand"
  },
  {
    "name": "โรงแรม 63 บางกอก",
    "name_en": "63 Bangkok",
    "latitude": 13.7196088069231,
    "longitude": 100.585162192583,
    "description": "ถนนสุขุมวิท แขวงพระโขนง เขตคลองเตย กรุงเทพมหานคร 10250",
    "description_en": "Sukhumvit Rd., Phra Khanong, Khlong Toei, Bangkok 10250"
  },
  {
    "name": "โรงแรม 7 สี รีสอร์ท",
    "name_en": "7 Si Resort Hotel",
    "latitude": 15.2578158764017,
    "longitude": 100.329009890556,
    "description": "ต.ตาคลี อ.ตาคลี จ.นครสวรรค์ 60140",
    "description_en": "Takhli, Takhli, Nakhon Sawan 60140"
  },
  {
    "name": "โรงแรม 72 แอท สมุย บาย สมุย นาคารา",
    "name_en": "72@Samui Hotel by Samui Nakara",
    "latitude": 9.57417156338672,
    "longitude": 100.077784792559,
    "description": "ต.บ่อผุด (เกาะส้ม) อ.เกาะสมุย จ.สุราษฎร์ธานี 84320",
    "description_en": "Bo Phut (Ko Som), Ko Samui, Surat Thani 84320"
  },
  {
    "name": "โรงแรม 737",
    "name_en": "737 HOTEL",
    "latitude": 18.1262706849699,
    "longitude": 100.16187608242,
    "description": "ถนนเหมืองหิต ต.นาจักร อ.เมืองแพร่ จ.แพร่ 54000",
    "description_en": "Mueang Hit Rd., Na Chak, Muang phrae, Phrae 54000"
  },
  {
    "name": "โรงแรม 7Q",
    "name_en": "7Q Hotel",
    "latitude": 7.9053627511674,
    "longitude": 98.2983577114602,
    "description": "205/9 ถนนพระบารมี ต.ป่าตอง อ.กะทู้ จ.ภูเก็ต 83150",
    "description_en": "Provincial Highway 4029 Pa Tong Krathu Phuket 83150"
  },
  {
    "name": "โรงแรม 8080 โฮเทล ป่าตอง",
    "name_en": "8080 Hotel Patong",
    "latitude": 7.89339007495318,
    "longitude": 98.2949325442314,
    "description": "ต.ป่าตอง อ.กะทู้ จ.ภูเก็ต 83150",
    "description_en": "Pa Tong, Kathu, Phuket 83150"
  },
  {
    "name": "โรงแรม 84",
    "name_en": "84 Hotel",
    "latitude": 18.5892886937774,
    "longitude": 99.0140421550728,
    "description": "ถนนสันป่ายาง ต.ในเมือง อ.เมืองลำพูน จ.ลำพูน 51000",
    "description_en": "San Pa Yang Rd., Nai Mueang, Muang Lamphun, Lamphun 51000"
  },
  {
    "name": "โรงแรม 9.5",
    "name_en": "9.5 Hotel",
    "latitude": 18.8014979980754,
    "longitude": 98.9639076590538,
    "description": "ต.สุเทพ อ.เมืองเชียงใหม่ จ.เชียงใหม่ 50200",
    "description_en": "Suthep, Mueang Chiang Mai, Chiang Mai 50200"
  },
  {
    "name": "โรงแรม 99",
    "name_en": "99 Inn",
    "latitude": 16.3929738571858,
    "longitude": 102.827413827181,
    "description": "ถนนกลางเมือง ต.เมืองเก่า อ.เมืองขอนแก่น จ.ขอนแก่น 40000",
    "description_en": "Klang Mueang Rd., Mueang Kao, Muang Khon kaen, Khon Kaen 40000"
  },
  {
    "name": "โรงแรม 99 รีสอร์ท",
    "name_en": "99 RESORT HOTEL",
    "latitude": 16.169981735322,
    "longitude": 103.280161321163,
    "description": "ต.แก่งเลิงจาน อ.เมืองมหาสารคาม จ.มหาสารคาม 44000",
    "description_en": "Kaeng Loeng Chan, Mueang Maha Sarakham, Maha Sarakham 44000"
  },
  {
    "name": "โรงแรม 99 รีสอร์ท  (เลย)",
    "name_en": "99 RESORT HOTEL",
    "latitude": 17.3840377669747,
    "longitude": 101.742233633995,
    "description": "ทางหลวงแผ่นดินหมายเลข 201 ต.นาโป่ง อ.เมืองเลย จ.เลย 42130",
    "description_en": "National Highway 201, Na Pong, Mueang Loei, Loei 42130"
  },
  {
    "name": "โรงแรม 99 เดอะ แกลเลอรี่",
    "name_en": "99 The Gallery Hotel",
    "latitude": 18.7894495915869,
    "longitude": 98.9829701185226,
    "description": "99 ถนนอินทวโรรส ต.ศรีภูมิ อ.เมืองเชียงใหม่ จ.เชียงใหม่ 50200",
    "description_en": "99 Intha Warorot Rd., Si Phum, Mueang Chiang Mai, Chiang Mai 50200"
  },
  {
    "name": "โรงแรม 99 โอลด์ทาวน์ บูติค เกสต์เฮ้าส์",
    "name_en": "โรงแรม 99 โอลด์ทาวน์ บูติค เกสต์เฮ้าส์",
    "latitude": 7.885465,
    "longitude": 98.389648,
    "description": "ถนนรมย์มณี ตลาดใหญ่ เมืองภูเก็ต จ.ภูเก็ต 83000",
    "description_en": "Rommani Rd., Talat Yai, Mueang Phuket, Phuket 83000"
  },
  {
    "name": "โรงแรม 999",
    "name_en": "999  Hotel",
    "latitude": 19.162386128484,
    "longitude": 100.278420746326,
    "description": "ต.นาปรัง อ.ปง จ.พะเยา 56140",
    "description_en": "Na Prang, Pong, Phayao 56140"
  },
  {
    "name": "โรงแรม 999 อินน์",
    "name_en": "999 Inn",
    "latitude": 15.2717008276719,
    "longitude": 104.847351908684,
    "description": "ต.ในเมือง อ.เมืองอุบลราชธานี จ.อุบลราชธานี 34000",
    "description_en": "Nai Mueang, Mueang Ubon Ratchathani, Ubon Ratchathani 34000"
  },
  {
    "name": "โรงแรม 9ดี สปอร์ต โฮเทล",
    "name_en": "9D Sport Hotel",
    "latitude": 17.4312478121021,
    "longitude": 102.808284312487,
    "description": "ต.หนองบัว อ.เมืองอุดรธานี จ.อุดรธานี 41000",
    "description_en": "Nong Bua, Mueang Udon Thani, Udon Thani 41000"
  },
  {
    "name": "โรงแรม After hours",
    "name_en": "โรงแรม After hours",
    "latitude": 13.7276276489907,
    "longitude": 100.530764297558,
    "description": "ซอยสีลม 6 แขวงสุริยวงศ์ เขตบางรัก กรุงเทพมหานคร 10500",
    "description_en": "Soi Silom 6, Suriyawong, Bang Rak, Bangkok 10500"
  },
  {
    "name": "โรงแรม Hin Nam",
    "name_en": "โรงแรม Hin Nam",
    "latitude": 12.6159753746026,
    "longitude": 99.9511496163905,
    "description": "ต.หัวหิน อ.หัวหิน จ.ประจวบคีรีขันธ์ 77110",
    "description_en": "Hua Hin, Hua Hin, Prachuap Khiri Khan 77110"
  },
  {
    "name": "โรงแรม LANA BEDS & SPACES",
    "name_en": "โรงแรม LANA BEDS & SPACES",
    "latitude": 18.795121,
    "longitude": 99.00508,
    "description": "ซอยแก้วนวรัฐ 3 วัดเกต เมืองเชียงใหม่ จ.เชียงใหม่ 50000",
    "description_en": "Soi Kaeo Nawarat 3, Wat Ket, Mueang Chiang Mai, Chiang Mai 50000"
  },
  {
    "name": "โรงแรม P&N",
    "name_en": "โรงแรม P&N",
    "latitude": 19.945976,
    "longitude": 99.235276,
    "description": "ซอยสระนิคม 6 เวียง ฝาง จ.เชียงใหม่ 50110",
    "description_en": "Soi Sa Nikhom 6, Wiang, Fang, Chiang Mai 50110"
  },
  {
    "name": "โรงแรม PRY 1 Station 1 (บ.ทิวป่าไม้งามฯ)",
    "name_en": "โรงแรม PRY 1 Station 1 (บ.ทิวป่าไม้งามฯ)",
    "latitude": 14.218544,
    "longitude": 101.405759,
    "description": "ทางหลวงแผ่นดินหมายเลข 3077 ต.เนินหอม อ.เมืองปราจีนบุรี จ.ปราจีนบุรี 25230",
    "description_en": "National Highway 3077, Noen Hom, Mueang Prachin Buri, Prachin Buri 25230"
  },
  {
    "name": "โรงแรม PRY 1 Station 2 (บ.ทิวป่าไม้งามฯ)",
    "name_en": "โรงแรม PRY 1 Station 2 (บ.ทิวป่าไม้งามฯ)",
    "latitude": 14.216603,
    "longitude": 101.406295,
    "description": "ต.เนินหอม อ.เมืองปราจีนบุรี จ.ปราจีนบุรี 25230",
    "description_en": "Noen Hom, Mueang Prachin Buri, Prachin Buri 25230"
  },
  {
    "name": "โรงแรม PRY 1 Station 2 (บ.ทิวป่าไม้งามฯ)",
    "name_en": "PRY Hotel 1 Station 2",
    "latitude": 14.216603,
    "longitude": 101.406295,
    "description": "74/2 หมู่14 ถนนปราจีนบุรี-เขาใหญ่ ตำบลเนินหอม อำเภอเมืองปราจีนบุรี จังหวัดปราจีนบุรี 25230",
    "description_en": "74/2 Moo 14, Prachin Buri-khaoyai, Nern Hom, Mueng Prachin Buri, Prachin Buri, 25230"
  },
  {
    "name": "โรงแรม Siam @ Siam",
    "name_en": "Siam@Siam Design Hotel & Spa",
    "latitude": 13.7471606063843,
    "longitude": 100.526775256348,
    "description": "865 Rama 1 Road,Wang Mai,Patumwan,Bangkok 10330, ThailandTel: +66 (0) 2217 3000Fax: +66 (0) 2217 3030E-mail: rsvn@siamatsiam.com",
    "description_en": "Rama 1 Rd., Wang Mai, Patumwan, Bangkok, 10400"
  },
  {
    "name": "โรงแรม Siam Kempenski",
    "name_en": "Siam Kempenski Hotel",
    "latitude": 13.7482218170166,
    "longitude": 100.535688353729,
    "description": "991/9 ถนนพระราม 1 แขวงปทุมวัน เขตปทุมวัน กรุงเทพมหานคร 10400",
    "description_en": "Pathum Wan, Patumwan, Bangkok, 10400"
  },
  {
    "name": "โรงแรม TH Beach",
    "name_en": "โรงแรม TH Beach",
    "latitude": 12.578936,
    "longitude": 99.954336,
    "description": "ถนนดำรงราช หัวหิน หัวหิน จ.ประจวบคีรีขันธ์ 77110",
    "description_en": "Damrong Rat Rd., Hua Hin, Hua Hin, Prachuap Khiri Khan 77110"
  },
  {
    "name": "โรงแรม The Nest",
    "name_en": "โรงแรม The Nest",
    "latitude": 16.432553,
    "longitude": 100.348717,
    "description": "ถนนสระหลวง ในเมือง เมืองพิจิตร จ.พิจิตร 66000",
    "description_en": "Sa Luang Rd., Nai Mueang, Mueang Phichit, Phichit 66000"
  },
  {
    "name": "โรงแรม TR Rock hill",
    "name_en": "โรงแรม TR Rock hill",
    "latitude": 6.994537,
    "longitude": 100.503589,
    "description": "ถนนทวีรัตน์ คอหงส์ หาดใหญ่ จ.สงขลา 90110",
    "description_en": "Thawi Rat Rd., Kho Hong, Hat Yai, Songkhla 90110"
  },
  {
    "name": "โรงแรม UD โฮเต็ล",
    "name_en": "โรงแรม UD โฮเต็ล",
    "latitude": 17.34864,
    "longitude": 102.826223,
    "description": "ทางหลวงชนบทหมายเลข อด.1076 บ้านจั่น เมืองอุดรธานี จ.อุดรธานี 41000",
    "description_en": "Rural Road UDN.1076, Ban Chan, Mueang Udon Thani, Udon Thani 41000"
  },
  {
    "name": "โรงแรม V HOTEL UBON",
    "name_en": "โรงแรม V HOTEL UBON",
    "latitude": 15.248485,
    "longitude": 104.842558,
    "description": "ถนนแจ้งสนิท ในเมือง เมืองอุบลราชธานี จ.อุบลราชธานี 34000",
    "description_en": "Chaengsanit Rd., Nai Mueang, Mueang Ubon Ratchathani, Ubon Ratchathani 34000"
  },
  {
    "name": "โรงแรม กนกบุรี รีสอร์ท แอนด์ สปา",
    "name_en": "Kanok Buri Resort and Spa",
    "latitude": 9.49561,
    "longitude": 99.933253,
    "description": "ต.ลิปะน้อย อ.เกาะสมุย จ.สุราษฎร์ธานี 84140",
    "description_en": "Lipa Noi Ko Samui Surat Thani 84140"
  },
  {
    "name": "โรงแรม กมลา ดรีม",
    "name_en": "Kamala Dreams",
    "latitude": 7.95027744822724,
    "longitude": 98.2799926263378,
    "description": "ทางหลวงแผ่นดินหมายเลข 4233 ต.กมลา อ.กะทู้ จ.ภูเก็ต 83000",
    "description_en": "National Highway 4233 Kammala Krathu Phuket 83000"
  },
  {
    "name": "โรงแรม กมลา รีสอร์ท แอนด์ สปา",
    "name_en": "Kamala Resort and Spa @ Kamala Beach Phuket",
    "latitude": 7.94435622660908,
    "longitude": 98.2782652974129,
    "description": "ทางหลวงแผ่นดินหมายเลข 4233 ต.กมลา อ.กะทู้ จ.ภูเก็ต 83150",
    "description_en": "National Highway 4233, Kamala, Kathu, Phuket 83150"
  },
  {
    "name": "โรงแรม กรองทองเขาใหญ่",
    "name_en": "Krong Thong Khao Yai Hotel",
    "latitude": 14.1520535674608,
    "longitude": 101.368097662926,
    "description": "ต.เนินหอม อ.เมืองปราจีนบุรี จ.ปราจีนบุรี 25230",
    "description_en": "Noen Hom, Mueang Prachin Buri, Prachin Buri 25230"
  },
  {
    "name": "โรงแรม กระท่อมหิน นันทภัค",
    "name_en": "Kratomhin Nuntapuk Hotel & Resort",
    "latitude": 14.3857034430757,
    "longitude": 101.859468952544,
    "description": "ต.วังน้ำเขียว อ.วังน้ำเขียว จ.นครราชสีมา 30370",
    "description_en": "Wang Nam Khiao Wang Nam Khieo Nakhon Ratchasima 30370"
  },
  {
    "name": "โรงแรม กระบี่ ริเวอร์ วิว",
    "name_en": "Krabi River View Hotel",
    "latitude": 8.0653483566533,
    "longitude": 98.9172600209713,
    "description": "171 ถนนเหมกานนท์ ต.ปากน้ำ อ.เมืองกระบี่ จ.กระบี่ 81000",
    "description_en": "Hemakanon Rd., Pak Nam, Mueang Krabi, Krabi 81000"
  },
  {
    "name": "โรงแรม กระบี่ อพาร์ทเม้นท์ กระบี่",
    "name_en": "Krabi Apartment Hotel",
    "latitude": 8.03759872913361,
    "longitude": 98.8336569070816,
    "description": "ทางหลวงจังหวัดหมายเลข 4203 ต.อ่าวนาง (เกาะบิดะนอก) อ.เมืองกระบี่ จ.กระบี่ 81000",
    "description_en": "Provincial Highway 4203 Ao Nang (Ko Bidanok) Muang Krabi Krabi 81000"
  },
  {
    "name": "โรงแรม กรีน พาร์ค",
    "name_en": "Green Park Hotel",
    "latitude": 16.1793250293741,
    "longitude": 103.302002549171,
    "description": "47 ถนน ผังเมืองบัญชา ซอย 2 ตำบล ตลาด อำเภอเมืองมหาสารคาม จังหวัด มหาสารคาม 44000",
    "description_en": "47 ,Phangmuang Bancha Rd., Talat, Mueang Maha Sarakham, Maha Sarakham 44000"
  },
  {
    "name": "โรงแรม กรีน แอปเปิล สัตหีบ",
    "name_en": "Green Apple Hotel Sattahip",
    "latitude": 12.6930354233269,
    "longitude": 100.977272987366,
    "description": "ต.พลูตาหลวง อ.สัตหีบ จ.ชลบุรี 20180",
    "description_en": "Phlu Ta Luang, Sattahip, Chon Buri 20180"
  },
  {
    "name": "โรงแรม กรีนฟอเรสท์ รีสอร์ท",
    "name_en": "Green forest resort",
    "latitude": 15.0436841157049,
    "longitude": 102.118251174688,
    "description": "ต.จอหอ อ.เมืองนครราชสีมา จ.นครราชสีมา 30310",
    "description_en": "Cho Ho, Mueang Nakhon Ratchasima, Nakhon Ratchasima 30310"
  },
  {
    "name": "โรงแรม กรีนเมาเท่น",
    "name_en": "Green Mountain Hotel",
    "latitude": 13.1142498582131,
    "longitude": 101.048505753279,
    "description": "ต.บึง อ.ศรีราชา จ.ชลบุรี 20230",
    "description_en": "Bueng, Siracha, Chon Buri 20230"
  },
  {
    "name": "โรงแรม กรีนเฮ้าส์",
    "name_en": "Green House Hotel",
    "latitude": 8.06564446469299,
    "longitude": 98.9138066768646,
    "description": "ถนนเหมกานนท์ ต.ปากน้ำ อ.เมืองกระบี่ จ.กระบี่ 81000",
    "description_en": "Maha Rat Rd., Pak Nam, Mueang Krabi, Krabi 81000"
  },
  {
    "name": "โรงแรม กรีนเฮ้าส์ โฮเต็ล",
    "name_en": "Green House Hotel",
    "latitude": 12.8232069552557,
    "longitude": 101.632440076032,
    "description": "ทางหลวงชนบทหมายเลข 7098 ต.ทางเกวียน อ.แกลง จ.ระยอง 21110",
    "description_en": "Rural Road 7098 Thang Kwian Klang Rayong 21110"
  },
  {
    "name": "โรงแรม กลอรี่เพลส หัวหิน",
    "name_en": "Gloryplace Hua Hin",
    "latitude": 12.5802691291632,
    "longitude": 99.9475353817095,
    "description": "10/241 ถนนเลียบคลองชลประทาน ต.หัวหิน อ.หัวหิน จ.ประจวบคีรีขันธ์ 77110",
    "description_en": "Hua Hin Hua Hin Prachuap Khiri Khan 77110"
  },
  {
    "name": "โรงแรม กลางเมือง แอท หนองคาย",
    "name_en": "Klang Muang at Nongkhai Hotel",
    "latitude": 17.8831684573805,
    "longitude": 102.746476829052,
    "description": "ซอยบรรเทิงจิต ต.ในเมือง อ.เมืองหนองคาย จ.หนองคาย 43000",
    "description_en": "Soi Banthoengchit, Nai Mueang, Mueang Nong Khai, Nong Khai 43000"
  },
  {
    "name": "โรงแรม กวี วิลล่า",
    "name_en": "Kawee Villa Hotel",
    "latitude": 13.8219147658238,
    "longitude": 102.074339375592,
    "description": "2 หมู่ 2 ซ.1 ถ.เทศบาล 19 ต.สระแก้ว อ.เมืองสระแก้ว จ.สระแก้ว 27000",
    "description_en": "Sa Kaeo Muang Srakaeo Sa Kaeo 27000"
  },
  {
    "name": "โรงแรม กอซอ รีสอร์ทแอนด์สปา หัวหิน",
    "name_en": "Korsor Resort & Spa Hua Hin",
    "latitude": 12.6301601671066,
    "longitude": 99.9283380496063,
    "description": "132/14 หมู่บ้านบ่อฝ้าย ต.หัวหิน อ.หัวหิน จ.ประจวบคีรีขันธ์ 77110",
    "description_en": "Hua Hin Hua Hin Prachuap Khiri Khan 77110"
  },
  {
    "name": "โรงแรม กอดเชียงใหม่",
    "name_en": "Gord Chiangmai",
    "latitude": 18.7835190188604,
    "longitude": 98.9852238308686,
    "description": "29/8 ถนนราชมรรคา ซอย 6  ต.พระสิงห์ อ.เมืองเชียงใหม่ จ.เชียงใหม่ 50200",
    "description_en": "Phra Sing, Muang Chiang Mai, Chiang Mai 50200"
  },
  {
    "name": "โรงแรม กอโชคชัย",
    "name_en": "Kor Chock Chai Hotel",
    "latitude": 16.4719407323678,
    "longitude": 99.5290631662344,
    "description": "19-43 ซอย 8 ถนนราชดำเนิน 1 ต.ในเมือง อ.เมืองกำแพงเพชร จ.กำแพงเพชร 62000",
    "description_en": "Ratcha Damnoen 1 Rd. Nai Mueang Muang Kampaeng Phet Kamphaeng Phet 62000"
  },
  {
    "name": "โรงแรม กะตะ มินตา",
    "name_en": "Kata Minta Hotel",
    "latitude": 7.81577115833937,
    "longitude": 98.3014194530502,
    "description": "ถนนโคกโตนด ต.กะรน อ.เมืองภูเก็ต จ.ภูเก็ต 83100",
    "description_en": "Khok Tanot Rd. Karon Muang Phuket Phuket 83100"
  },
  {
    "name": "โรงแรม กัญญณัช บูติค",
    "name_en": "Kanyanat Boutique Hotel",
    "latitude": 18.284291710029,
    "longitude": 99.5043915510178,
    "description": "ถนนไทยลานนา ต.หัวเวียง อ.เมืองลำปาง จ.ลำปาง 52000",
    "description_en": "Thai Lan Na Rd., Hua Wiang, Mueang Lampang, Lampang 52000"
  },
  {
    "name": "โรงแรม กัลลิเวอร์ ทาเวิร์น",
    "name_en": "Gulliver's Tavern Bangkok",
    "latitude": 13.7430535460328,
    "longitude": 100.554386526346,
    "description": "6/1 ซอยสุขุมวิท 5 แขวงคลองเตยเหนือ เขตวัฒนา กรุงเทพมหานคร 10110",
    "description_en": "6/1 Sukumvit Soi 5 Wattana Bangkok 10110"
  },
  {
    "name": "โรงแรม กาญจนบุรี ซิตี้ โฮเทล",
    "name_en": "Kanchanaburi City Hotel",
    "latitude": 14.0416278530838,
    "longitude": 99.5057259500027,
    "description": "368 ถนนแม่น้ำแคว ต.ท่ามะขาม อ.เมืองกาญจนบุรี จ.กาญจนบุรี 71000",
    "description_en": "368 Maenam Kwai Rd., Tha Makham, Mueang Kanchanaburi, Kanchanaburi 71000"
  },
  {
    "name": "โรงแรม การ์เดนฮิลล์ แมนชั่น",
    "name_en": "โรงแรม การ์เดนฮิลล์ แมนชั่น",
    "latitude": 7.562822,
    "longitude": 99.614668,
    "description": "ทับเที่ยง เมืองตรัง จ.ตรัง 92000",
    "description_en": "Thap Thiang, Mueang Trang, Trang 92000"
  },
  {
    "name": "โรงแรม การ์เด้น รีสอร์ท",
    "name_en": "Garden Resort Hotel",
    "latitude": 15.7277758942765,
    "longitude": 100.113320052624,
    "description": "ต.ปากน้ำโพ อ.เมืองนครสวรรค์ จ.นครสวรรค์ 60000",
    "description_en": "Pak Nam Pho, Mueang Nakhon Sawan, Nakhon Sawan 60000"
  },
  {
    "name": "โรงแรม การ์เด้นเฮ้าส์ รีสอร์ท",
    "name_en": "Garden House Resort Hotel",
    "latitude": 15.4547143165338,
    "longitude": 100.144856125116,
    "description": "ทางหลวงแผ่นดินหมายเลข 3522 ต.พยุหะ อ.พยุหะคีรี จ.นครสวรรค์ 60130",
    "description_en": "National Highway 3522, Phayuha, Phayuha Khiri, Nakhon Sawan 60130"
  },
  {
    "name": "โรงแรม กาแล อินน์",
    "name_en": "Kalae Inn Hotel",
    "latitude": 7.7919877147818,
    "longitude": 99.5906648039818,
    "description": "ทางหลวงแผ่นดินหมายเลข 403 ต.เขากอบ อ.ห้วยยอด จ.ตรัง 92130",
    "description_en": "National Highway 403, Khao Kop, Huai Yot, Trang 92130"
  },
  {
    "name": "โรงแรม กาแล็คซี่อินน์",
    "name_en": "Galaxy Inn Hotel",
    "latitude": 13.7071832899601,
    "longitude": 100.309608117684,
    "description": "99/9 ซอยเพชรเกษม 124 ถนนเพชรเกษม ต.อ้อมน้อย อ.กระทุ่มแบน จ.สมุทรสาคร 74130",
    "description_en": "Om Noi Krathumbaen Samut Sakhon 74130"
  },
  {
    "name": "โรงแรม กิตติ์ลดา",
    "name_en": "Kitlada Hotel",
    "latitude": 17.3947984098781,
    "longitude": 102.78432816267,
    "description": "510 หมู่ 7 ซอยเสกสรรค์ ต.บ้านจั่น อ.เมืองอุดรธานี จ.อุดรธานี 41000",
    "description_en": "510 Moo 7 Soi Seksun, Ban Chan, Mueang Udon Thani, Udon Thani 41000"
  },
  {
    "name": "โรงแรม กุ๊งกิ๊งวิลเลจ",
    "name_en": "Kungking Village",
    "latitude": 16.2487405749594,
    "longitude": 103.274416029453,
    "description": "110 หมู่ 7 บ.ดอนยม ต.ท่าขอนยาง อ.กันทรวิชัย จ.มหาสารคาม 44150",
    "description_en": "Tha Khon Yang, Kanthara Wichai, Maha Sarakham 44150"
  },
  {
    "name": "โรงแรม กู๊ดโฮม อุดรธานี",
    "name_en": "Good Home Hotel",
    "latitude": 17.4178213454363,
    "longitude": 102.796781659126,
    "description": "ต.หมากแข้ง อ.เมืองอุดรธานี จ.อุดรธานี 41000",
    "description_en": "Mak Khaeng, Mueang Udon Thani, Udon Thani 41000"
  },
  {
    "name": "โรงแรม คชาทอง",
    "name_en": "Khachathong",
    "latitude": 12.5649498788395,
    "longitude": 99.9591372768018,
    "description": "ถนนโขมพัสตรี ต.หัวหิน อ.หัวหิน จ.ประจวบคีรีขันธ์ 77110",
    "description_en": "Khom Phat Sati Rd. Hua Hin Hua Hin Prachuap Khiri Khan 77110"
  },
  {
    "name": "โรงแรม ครอส เชียงใหม่ ริเวอร์ไซด์",
    "name_en": "Cross Chiang Mai Riverside",
    "latitude": 18.8016376478893,
    "longitude": 99.0052391588688,
    "description": "ถนนเจริญราษฎร์ ต.วัดเกต อ.เมืองเชียงใหม่ จ.เชียงใหม่ 50000",
    "description_en": "Charoenrat Rd., Wat Ket, Mueang Chiang Mai, Chiang Mai 50000"
  },
  {
    "name": "โรงแรม ครอสทู ไวบ์ บุรีรัมย์",
    "name_en": "X2 Vibe Buriram Hotel",
    "latitude": 14.9736468682668,
    "longitude": 103.069436252117,
    "description": "ต.อิสาณ อ.เมืองบุรีรัมย์ จ.บุรีรัมย์ 31000",
    "description_en": "I San, Mueang Buri Ram, Buri Ram 31000"
  },
  {
    "name": "โรงแรม ครอสทู ไวบ์ ภูเก็ต ป่าตอง",
    "name_en": "X2 Vibe Phuket Patong",
    "latitude": 7.89189429614127,
    "longitude": 98.3023716509342,
    "description": "ต.ป่าตอง อ.กะทู้ จ.ภูเก็ต 83150",
    "description_en": "Pa Tong, Kathu, Phuket 83150"
  },
  {
    "name": "โรงแรม คริสตอล เจด",
    "name_en": "Crystal Jade Hotel",
    "latitude": 12.6823121279547,
    "longitude": 101.257549077272,
    "description": "ถนนสุขุมวิท ต.ท่าประดู่ อ.เมืองระยอง จ.ระยอง 21000",
    "description_en": "Sukhumwit Rd., Tha Pradu, Muang Rayong, Rayong 21000"
  },
  {
    "name": "โรงแรม คริสตัล บ๊อกซ์",
    "name_en": "Crystal Box Hotel",
    "latitude": 17.501491275659,
    "longitude": 101.711543798447,
    "description": "105 หมู่ 5 ถนนดำรงวิถี ต.เมือง อ.เมืองเลย จ.เลย 42000",
    "description_en": "105 Moo 5 Damrong Withi Rd., Mueang, Mueang Loei, Loei 42000"
  },
  {
    "name": "โรงแรม ครูว์",
    "name_en": "CREW Hotel",
    "latitude": 18.7794813910577,
    "longitude": 98.992765545845,
    "description": "ซอยระแกง 1 ต.หายยา อ.เมืองเชียงใหม่ จ.เชียงใหม่ 50100",
    "description_en": "Soi Rakaeng 1, Hai Ya, Mueang Chiang Mai, Chiang Mai 50100"
  },
  {
    "name": "โรงแรม คลาวด์ 9 หัวหิน",
    "name_en": "Cloud 9 Hotel Hua Hin",
    "latitude": 12.5724456743558,
    "longitude": 99.9570773541927,
    "description": "71 ถนนแนบเคหาสน์ หัวหิน หัวหิน จ.ประจวบคีรีขันธ์ 77110",
    "description_en": "71 Naepkhehat Rd., Hua Hin, Hua Hin, Prachuap Khiri Khan 77110"
  },
  {
    "name": "โรงแรม คลาสสิค อินน์",
    "name_en": "Classic Inn Hotel",
    "latitude": 12.9368675811606,
    "longitude": 100.888211564087,
    "description": "ซอยพัทยากลาง 16 ต.นาเกลือ อ.บางละมุง จ.ชลบุรี 20260",
    "description_en": "Soi Phatthaya Klang 16, Na Kluea, Bang La Mung, Chon Buri 20260"
  },
  {
    "name": "โรงแรม ควอเตอร์",
    "name_en": "Quarter Hotel",
    "latitude": 19.3624048703907,
    "longitude": 98.4362286192245,
    "description": "ทางหลวงชนบทหมายเลข 7024 ต.เวียงใต้ อ.ปาย จ.แม่ฮ่องสอน 58130",
    "description_en": "Rural Road 7024 Wiang Tai Phai Mae Hong Son 58130"
  },
  {
    "name": "โรงแรม คอนวีเนียน ปาร์ค",
    "name_en": "Convenient Park Hotel",
    "latitude": 13.6888649774251,
    "longitude": 100.608136639895,
    "description": "สุขุมวิท 62/3 แขวงบางจาก เขตพระโขนง กรุงเทพมหานคร 10260",
    "description_en": "Soi Sukhumwit 64 Bang Chak Phra Khanong Bangkok 10260"
  },
  {
    "name": "โรงแรม คอนวีเนียน รีสอร์ท สุวรรณภูมิ",
    "name_en": "Convenient Resort, Suvarnabhumi Airport",
    "latitude": 13.719184,
    "longitude": 100.756251,
    "description": "9-11 แขวงลาดกระบัง เขตลาดกระบัง กรุงเทพมหานคร 10520",
    "description_en": "9-11 Lat Krabang Lat Krabang Bangkok 10520"
  },
  {
    "name": "โรงแรม คอรัล ทรี วิลล่า หัวหิน",
    "name_en": "Coral Tree Villa Hua Hin",
    "latitude": 12.6593515580743,
    "longitude": 99.9572704732418,
    "description": "ต.ชะอำ อ.ชะอำ จ.เพชรบุรี 76120",
    "description_en": "Cha-Am, Cha-Am, Phetchaburi 76120"
  },
  {
    "name": "โรงแรม คันทรีอินน์",
    "name_en": "Country Inn Hotel",
    "latitude": 13.9343925923843,
    "longitude": 101.560814380646,
    "description": "ต.ท่าตูม อ.ศรีมหาโพธิ จ.ปราจีนบุรี 25140",
    "description_en": "Tha Tum, Si Maha Phot, Prachin Buri 25140"
  },
  {
    "name": "โรงแรม คันทารี อยุธยา",
    "name_en": "Kantary Hotel Ayutthaya",
    "latitude": 14.3452048301697,
    "longitude": 100.606044530869,
    "description": "ต.ธนู อ.อุทัย จ.พระนครศรีอยุธยา 13000",
    "description_en": "Thanu Uthai Phra Nakhon Si Ayutthaya 13000"
  },
  {
    "name": "โรงแรม คาซ่า เดอ ปันดาว",
    "name_en": "โรงแรม คาซ่า เดอ ปันดาว",
    "latitude": 17.456278,
    "longitude": 101.385955,
    "description": "หนองบัว ภูเรือ จ.เลย 42160",
    "description_en": "Nong Bua, Phu Ruea, Loei 42160"
  },
  {
    "name": "โรงแรม คาซ่า เรสซิเดนซ์",
    "name_en": "Casa Residence Hotel",
    "latitude": 13.8893423953495,
    "longitude": 100.576037317514,
    "description": "ซอยเบ็ญจมิตร แขวงทุ่งสองห้อง เขตหลักสี่ กรุงเทพมหานคร 10210",
    "description_en": "Soi Benchamit, Thung Song Hong, Lak Si, Bangkok 10210"
  },
  {
    "name": "โรงแรม คามีโอ เฮ้าส์",
    "name_en": "Kameo House Hotel",
    "latitude": 12.6818267150202,
    "longitude": 101.261033252687,
    "description": "ถนนยมจินดา ต.ท่าประดู่ อ.เมืองระยอง จ.ระยอง 21000",
    "description_en": "Yomchinda Rd., Tha Pradu, Muang Rayong, Rayong 21000"
  },
  {
    "name": "โรงแรม คาริบูไฮแลนด์",
    "name_en": "Caribou Highland Hotel",
    "latitude": 12.6155757752736,
    "longitude": 102.10101930866,
    "description": "ทางหลวงจังหวัดหมายเลข 3153 ต.วัดใหม่ อ.เมืองจันทบุรี จ.จันทบุรี 22000",
    "description_en": "Provincial Highway 3153 Watmai Muang Chanthaburi Chanthaburi 22000"
  },
  {
    "name": "โรงแรม คาร์มา เกาะสมุย",
    "name_en": "Karma Samui Resort",
    "latitude": 9.55126047134399,
    "longitude": 100.076941251755,
    "description": "80/32 ม.5 ต.บ่อผุด (เกาะส้ม) อ.เกาะสมุย จ.สุราษฎร์ธานี 84320",
    "description_en": "80/32 Moo 5 Bo Phut (Ko Som) Ko Samui Surat Thani 84320"
  },
  {
    "name": "โรงแรม คาลิปโซ ป่าตอง",
    "name_en": "Calypso Patong Hôtel",
    "latitude": 7.88211846460553,
    "longitude": 98.2995513081551,
    "description": "209/1-2 ถนนนาใน ต.ป่าตอง อ.กะทู้ จ.ภูเก็ต 83150",
    "description_en": "209/1-2 Na Nai Rd., Pa Tong, Kathu, Phuket 83150"
  },
  {
    "name": "โรงแรม คาวบอย แอนด์รีสอร์ท",
    "name_en": "โรงแรม คาวบอย แอนด์รีสอร์ท",
    "latitude": 18.102738,
    "longitude": 103.10479,
    "description": "ทางหลวงแผ่นดินหมายเลข 212 กุดบง โพนพิสัย จ.หนองคาย 43120",
    "description_en": "National Highway 212, Kut Bong, Phon Phisai, Nong Khai 43120"
  },
  {
    "name": "โรงแรม คาโบชอง",
    "name_en": "Cabochon Hotel & Residence",
    "latitude": 13.7290724467309,
    "longitude": 100.573439598084,
    "description": "14 ซอยสุขุมวิท 45 แขวงคลองตันเหนือ เขตวัฒนา กรุงเทพมหานคร 10250",
    "description_en": "14 Soi Sukhumvit 45, Khlong Tan Nuea, Vadhana, Bangkok 10250"
  },
  {
    "name": "โรงแรม คำมูน ลอฟ",
    "name_en": "Come moon loft",
    "latitude": 18.1425421051447,
    "longitude": 100.132530033588,
    "description": "ต.ในเวียง อ.เมืองแพร่ จ.แพร่ 54000",
    "description_en": "Nai Wiang, Mueang Phrae, Phrae 54000"
  },
  {
    "name": "โรงแรม คิมป์ตัน มาลัย กรุงเทพ",
    "name_en": "Kimpton Maa-Lai Hotel Bangkok",
    "latitude": 13.7377631815466,
    "longitude": 100.543351918459,
    "description": "ถนนหลังสวน แขวงลุมพินี เขตปทุมวัน กรุงเทพมหานคร 10330",
    "description_en": "Langsuan Road, Lumphini, Pathum Wan, Bangkok 10330"
  },
  {
    "name": "โรงแรม คิวบิส กาฬสินธุ์",
    "name_en": "QBiz Hotel Kalasin",
    "latitude": 16.4434478257106,
    "longitude": 103.53206500411,
    "description": "ต.กาฬสินธุ์ อ.เมืองกาฬสินธุ์ จ.กาฬสินธุ์ 46000",
    "description_en": "Kalasin, Mueang Kalasin, Kalasin 46000"
  },
  {
    "name": "โรงแรม คิวปิด",
    "name_en": "โรงแรม คิวปิด",
    "latitude": 7.211324,
    "longitude": 99.719996,
    "description": "ทางหลวงชนบทหมายเลข ตง.3022 ทุ่งยาว ปะเหลียน จ.ตรัง 92180",
    "description_en": "Rural Road TRG.3022, Thung Yao, Palian, Trang 92180"
  },
  {
    "name": "โรงแรม คีพบ๊อกซ์ ตรัง",
    "name_en": "kipbox hotel",
    "latitude": 7.55353454445043,
    "longitude": 99.5968995988369,
    "description": "ถนนมหาราช ต.ทับเที่ยง อ.เมืองตรัง จ.ตรัง 92000",
    "description_en": "Maha Rat Rd., Thap Thiang, Mueang Trang, Trang 92000"
  },
  {
    "name": "โรงแรม คีรีวารี ซีไซด์ วิลล่า แอนด์ สปา",
    "name_en": "Keereewaree Seaside Villa And Spa",
    "latitude": 11.3382929563522,
    "longitude": 99.5601546764374,
    "description": "400 ม.3 ต.ธงชัย อ.บางสะพาน จ.ประจวบคีรีขันธ์ 77140",
    "description_en": "400 Moo 3 Thong Chai Bang Saphan Prachuap Khiri Khan 77140"
  },
  {
    "name": "โรงแรม คุณหญิง โฮเทล",
    "name_en": "Khun Ying Hotel",
    "latitude": 18.7851607094359,
    "longitude": 100.772513151169,
    "description": "ต.ผาสิงห์ อ.เมืองน่าน จ.น่าน 55000",
    "description_en": "Pha Sing, Mueang Nan, Nan 55000"
  },
  {
    "name": "โรงแรม คุ้มภูคำ",
    "name_en": "Khum pokham",
    "latitude": 18.8067985153198,
    "longitude": 98.9626365386963,
    "description": "ต.ช้างเผือก อ.เมืองเชียงใหม่ จ.เชียงใหม่ 50300",
    "description_en": ""
  },
  {
    "name": "โรงแรม คุ้มภูคำ",
    "name_en": "KHUM PUKHAM",
    "latitude": 18.8067824363708,
    "longitude": 98.9626472579956,
    "description": "ต.ช้างเผือก อ.เมืองเชียงใหม่ จ.เชียงใหม่ 50300",
    "description_en": ""
  },
  {
    "name": "โรงแรม คุ้มภูคำ",
    "name_en": "Khum pokham",
    "latitude": 18.8067770767212,
    "longitude": 98.9626418983459,
    "description": "ต.ช้างเผือก อ.เมืองเชียงใหม่ จ.เชียงใหม่ 50300",
    "description_en": ""
  },
  {
    "name": "โรงแรม คุ้มไทรงาม แอนด์ รีสอร์ท",
    "name_en": "โรงแรม คุ้มไทรงาม แอนด์ รีสอร์ท",
    "latitude": 7.157382,
    "longitude": 100.55205,
    "description": "ทางหลวงชนบทหมายเลข สข.3049 เกาะยอ เมืองสงขลา จ.สงขลา 90100",
    "description_en": "Rural Road SKA.3049, Ko Yo, Mueang Songkhla, Songkhla 90100"
  },
  {
    "name": "โรงแรม คุ๊กกี้ เกาะช้าง",
    "name_en": "Cookies Hotel",
    "latitude": 12.1084188858221,
    "longitude": 102.270618066857,
    "description": "ต.เกาะช้าง กิ่ง อ.เกาะช้าง จ.ตราด 23120",
    "description_en": "Ko Chang King Amphoe  Ko Chang Trat 23120"
  },
  {
    "name": "โรงแรม งี่ฟ้าแกรนด์ซิตี้",
    "name_en": "Ngeefa Grand City Hotel",
    "latitude": 7.00722484210405,
    "longitude": 100.480507076701,
    "description": "ถนนประชาธิปัตย์ ต.หาดใหญ่ อ.หาดใหญ่ จ.สงขลา 90110",
    "description_en": "Pracha Thipat Rd. Hat Yai Hat Yai Songkhla 90110"
  },
  {
    "name": "โรงแรม จันทร รีสอร์ท",
    "name_en": "Jantorn Resort",
    "latitude": 16.1629192307582,
    "longitude": 103.616668581963,
    "description": "100 หมู่ 9 ต.ปาฝา อ.จังหาร จ.ร้อยเอ็ด 45000",
    "description_en": "100 Moo 9 Pa Fa, Changhan, Roi Et 45000"
  },
  {
    "name": "โรงแรม จันทร์หอม",
    "name_en": "Janhom Hotel",
    "latitude": 19.5836358988521,
    "longitude": 100.298678129911,
    "description": "ทางหลวงแผ่นดินหมายเลข 1021 ต.เชียงแรง อ.ภูซาง จ.พะเยา 56110",
    "description_en": "National Highway 1021, Chiang Raeng, Phu Sang, Phayao 56110"
  },
  {
    "name": "โรงแรม จัสท์ เบด",
    "name_en": "Just Beds Hotel",
    "latitude": 13.7254949647788,
    "longitude": 100.518128424883,
    "description": "56/6 ซอยปราโมทย์ แขวงสุริยวงศ์ เขตบางรัก กรุงเทพมหานคร 10500",
    "description_en": "56/6 Soi Pramot, Suriyawong, Bang Rak, Bangkok, 10500"
  },
  {
    "name": "โรงแรม จัสมิน",
    "name_en": "JASMINE HOTEL",
    "latitude": 13.649757080504,
    "longitude": 100.606338232756,
    "description": "ซอยสันติคาม 14 ต.สำโรงเหนือ อ.เมืองสมุทรปราการ จ.สมุทรปราการ 10270",
    "description_en": "Soi Santikham 14, Samrong Nuea, Mueang Samut Prakan, Samut Prakan 10270"
  },
  {
    "name": "โรงแรม จัสมิน ลอด์จ",
    "name_en": "Jasmine Lodge Hotel",
    "latitude": 16.4807738627712,
    "longitude": 99.5273861289024,
    "description": "9/1 ซอยชากังราว 2 ต.ในเมือง อ.เมืองกำแพงเพชร จ.กำแพงเพชร 62000",
    "description_en": "Nai Mueang, Mueang Kamphaeng Phet, Kamphaeng Phet 62000"
  },
  {
    "name": "โรงแรม จัสไฟน์กระบี่",
    "name_en": "โรงแรม จัสไฟน์กระบี่",
    "latitude": 8.065785,
    "longitude": 98.916794,
    "description": "ถนนอุดรกิจ ปากน้ำ เมืองกระบี่ จ.กระบี่ 81000",
    "description_en": "Udonkit Rd., Pak Nam, Mueang Krabi, Krabi 81000"
  },
  {
    "name": "โรงแรม จามาคีรี สปา แอนด์ รีสอร์ท",
    "name_en": "Jamahkiri Resort & Spa",
    "latitude": 10.0650537014008,
    "longitude": 99.8348772525787,
    "description": "21/2 ต.เกาะเต่า (เกาะนางญวน) อ.เกาะพะงัน จ.สุราษฎร์ธานี 84280",
    "description_en": "21/2 ko Tao (Ko Nang Yuan) Ko Phangan Surat Thani 84280"
  },
  {
    "name": "โรงแรม จิงโจ้ สาขา ปะทิว",
    "name_en": "chingcho hotel pathio",
    "latitude": 10.70380620715,
    "longitude": 99.3204309046269,
    "description": "ทางหลวงแผ่นดินหมายเลข 3201 ต.บางสน อ.ปะทิว จ.ชุมพร 86160",
    "description_en": "National Highway 3201, Bang Son, Pathio, Chumphon 86160"
  },
  {
    "name": "โรงแรม จิงโจ้โฮเต็ล",
    "name_en": "JingJo Hotel",
    "latitude": 9.91300794585857,
    "longitude": 99.0604001283646,
    "description": "ต.ขันเงิน อ.หลังสวน จ.ชุมพร 86110",
    "description_en": "Khan Ngoen, Lang Suan, Chumphon 86110"
  },
  {
    "name": "โรงแรม จินดา",
    "name_en": "โรงแรม จินดา",
    "latitude": 9.531551,
    "longitude": 99.934908,
    "description": "อ่างทอง เกาะสมุย จ.สุราษฎร์ธานี 84140",
    "description_en": "Ang Thong, Ko Samui, Surat Thani 84140"
  },
  {
    "name": "โรงแรม จิรดา รีสอร์ท",
    "name_en": "โรงแรม จิรดา รีสอร์ท",
    "latitude": 10.610027,
    "longitude": 99.168145,
    "description": "นากระตาม ท่าแซะ จ.ชุมพร 86140",
    "description_en": "Na Kratam, Tha Sae, Chumphon 86140"
  },
  {
    "name": "โรงแรม จี ทู บูติค โฮเต็ล",
    "name_en": "G2 Boutique Hotel",
    "latitude": 18.7837247093926,
    "longitude": 98.9826884865761,
    "description": "ต.พระสิงห์ อ.เมืองเชียงใหม่ จ.เชียงใหม่ 50200",
    "description_en": "Phra Sing, Mueang Chiang Mai, Chiang Mai 50200"
  },
  {
    "name": "โรงแรม จีทู หาดใหญ่",
    "name_en": "G2 Hotel (Hat Yai)",
    "latitude": 7.01010064874188,
    "longitude": 100.479910969734,
    "description": "ถนนสมชัย ต.หาดใหญ่ อ.หาดใหญ่ จ.สงขลา 90110",
    "description_en": "Somchai Rd., Hat Yai, Hat Yai, Songkhla 90110"
  },
  {
    "name": "โรงแรม จีเฮ้าส์ หัวหิน",
    "name_en": "G House Hua Hin",
    "latitude": 12.5755537482678,
    "longitude": 99.9460762600055,
    "description": "ทางหลวงจังหวัดหมายเลข 3218 ต.หัวหิน อ.หัวหิน จ.ประจวบคีรีขันธ์ 77110",
    "description_en": "Provincial Highway 3218 Hua Hin Hua Hin Prachuap Khiri Khan 77110"
  },
  {
    "name": "โรงแรม ฉลองบีช โฮเท็ล แอนด์ สปา",
    "name_en": "Chalong Beach Hotel & Spa",
    "latitude": 7.82494246959686,
    "longitude": 98.3455055952072,
    "description": "16/9 ม.5, ต.ฉลอง, อ.เมืองภูเก็ต, จ.ภูเก็ต 83130",
    "description_en": "16/9 Moo 5, Chalong, Muang Phuket, Phuket 83130"
  },
  {
    "name": "โรงแรม ฉางอินน์",
    "name_en": "Chang Inn Hotel",
    "latitude": 12.7247395055086,
    "longitude": 101.049579977989,
    "description": "3 ซอย เทศบาล 25 ตำบล สำนักท้อน อำเภอ บ้านฉาง จ.ระยอง 21130",
    "description_en": "Phla, Ban Chang, Rayong 21130"
  },
  {
    "name": "โรงแรม ช ตุ๊กตาเพลส",
    "name_en": "โรงแรม ช ตุ๊กตาเพลส",
    "latitude": 16.062979,
    "longitude": 103.635196,
    "description": "ถนนคุ้มแสนสุข ในเมือง เมืองร้อยเอ็ด จ.ร้อยเอ็ด 45000",
    "description_en": "Khumsaensuk Rd., Nai Mueang, Mueang Roi Et, Roi Et 45000"
  },
  {
    "name": "โรงแรม ช.พาเลส",
    "name_en": "Chour Palace Hotel",
    "latitude": 20.4345356681512,
    "longitude": 99.8849138478475,
    "description": "114 ม.3 ต.เวียงพางคำ อ.แม่สาย จ.เชียงราย 57130",
    "description_en": "Wiang Phang Kham, Mae Sai, Chiang Rai 57130"
  },
  {
    "name": "โรงแรม ชญาปาร์ค",
    "name_en": "Chayapark Hotel",
    "latitude": 16.4202257158642,
    "longitude": 101.148418039083,
    "description": "ทางหลวงแผ่นดินหมายเลข 2006 (ถนนบุรกรรมโกวิท) ต.ในเมือง อ.เมืองเพชรบูรณ์ จ.เพชรบูรณ์ 67000",
    "description_en": "National Highway 2006 (Bun Kam Kowit Rd.), Nai Mueang, Mueang Phetchabun, Phetchabun 67000"
  },
  {
    "name": "โรงแรม ชบารีสอร์ท",
    "name_en": "Chabaa Resort Hotel",
    "latitude": 17.3734172827946,
    "longitude": 102.835346460342,
    "description": "ต.หนองขอนกว้าง อ.เมืองอุดรธานี จ.อุดรธานี 41000",
    "description_en": "Nong Khon Kwang, Mueang Udon Thani, Udon Thani 41000"
  },
  {
    "name": "โรงแรม ชบาแกรนด์ (บจ. ชบาแกรนด์ )",
    "name_en": "โรงแรม ชบาแกรนด์ (บจ. ชบาแกรนด์ )",
    "latitude": 7.996587,
    "longitude": 98.297441,
    "description": "เชิงทะเล ถลาง จ.ภูเก็ต 83110",
    "description_en": "Choeng Thale, Thalang, Phuket 83110"
  },
  {
    "name": "โรงแรม ชมตรัง",
    "name_en": "โรงแรม ชมตรัง",
    "latitude": 7.557982,
    "longitude": 99.611541,
    "description": "ทับเที่ยง เมืองตรัง จ.ตรัง 92000",
    "description_en": "Thap Thiang, Mueang Trang, Trang 92000"
  },
  {
    "name": "โรงแรม ชมน่านเพลส",
    "name_en": "Nan Press Hotel",
    "latitude": 18.7868341228654,
    "longitude": 100.780797153711,
    "description": "อรัญวาส ซอย 1 ต.ในเวียง อ.เมืองน่าน จ.น่าน 55000",
    "description_en": "Aranyawat soi 1, Nai Wiang, Mueang Nan, Nan 55000"
  },
  {
    "name": "โรงแรม ชวนชม รีสอร์ท",
    "name_en": "โรงแรม ชวนชม รีสอร์ท",
    "latitude": 16.679954,
    "longitude": 102.263554,
    "description": "ในเมือง เวียงเก่า จ.ขอนแก่น 40150",
    "description_en": "Nai Mueang, Wiang Kao, Khon Kaen 40150"
  },
  {
    "name": "โรงแรม ชวนชมรีสอร์ท ภูเวียง",
    "name_en": "Chuan Chom Resort",
    "latitude": 16.6795443783365,
    "longitude": 102.268193364143,
    "description": "ต.ในเมือง อ.เวียงเก่า จ.ขอนแก่น 40150",
    "description_en": "Nai Mueang, Wiang Kao, Khon Kaen 40150"
  },
  {
    "name": "โรงแรม ชานบุรี บูติค จันทบุรี",
    "name_en": "โรงแรม ชานบุรี บูติค จันทบุรี",
    "latitude": 12.589211,
    "longitude": 102.08419,
    "description": "ถนนโยธาธิการ จบ. สายท่าแฉลบ-เกาะลอย ตลาด เมืองจันทบุรี จ.จันทบุรี 22000",
    "description_en": "PWD CTI Sai Tha Cha Laep - Ko Loi Rd., Talat, Mueang Chanthaburi, Chanthaburi 22000"
  },
  {
    "name": "โรงแรม ชายทุ่ง รีสอร์ท",
    "name_en": "โรงแรม ชายทุ่ง รีสอร์ท",
    "latitude": 17.291047,
    "longitude": 103.650504,
    "description": "ทางหลวงแผ่นดินหมายเลข 227 วาริชภูมิ วาริชภูมิ จ.สกลนคร 47150",
    "description_en": "National Highway 227, Waritchaphum, Waritchaphum, Sakon Nakhon 47150"
  },
  {
    "name": "โรงแรม ชาลา นัมเบอร์ ทู",
    "name_en": "Chala Number 2 Hotel",
    "latitude": 18.7866716069638,
    "longitude": 98.9894315600395,
    "description": "ซอยพระปกเกล้า 8 ต.พระสิงห์ อ.เมืองเชียงใหม่ จ.เชียงใหม่ 50200",
    "description_en": "Soi Phra Pokklao 8, Phra Sing, Mueang Chiang Mai, Chiang Mai 50200"
  },
  {
    "name": "โรงแรม ชาลีน่า ปริ้นเซส (รามคำแหง)",
    "name_en": "Chaleena Hotel",
    "latitude": 13.764226834821,
    "longitude": 100.623610317707,
    "description": "ซอยลาดพร้าว 122 (มหาดไทย) (รามคำแหง 65) แขวงวังทองหลาง เขตวังทองหลาง กรุงเทพมหานคร 10310",
    "description_en": "Soi Lad Phrao 122 (Mahadthai), Wang Thonglang, Wang Thong Lang, Bangkok 10310"
  },
  {
    "name": "โรงแรม ชิค 39",
    "name_en": "Chic 39",
    "latitude": 18.8877236294995,
    "longitude": 98.9794711768627,
    "description": "240 หมู่ 4 ต.เหมืองแก้ว อ.แม่ริม จ.เชียงใหม่ 50180",
    "description_en": "240 Moo 4 Mueang Kaeo, Mae Rim, Chiang Mai 50180"
  },
  {
    "name": "โรงแรม ชิคอินน์",
    "name_en": "Chick In Hotel",
    "latitude": 18.78299337058,
    "longitude": 100.764864818136,
    "description": "ถนนผาทอง 3 ต.ผาสิงห์ อ.เมืองน่าน จ.น่าน 55000",
    "description_en": "Pha Thong 3 Rd., Pha Sing, Muang Nan, Nan 55000"
  },
  {
    "name": "โรงแรม ชิลเฮ้าส์แอทในยางบีช",
    "name_en": "Chill House Nai Yang Beach",
    "latitude": 8.09223089500627,
    "longitude": 98.3022576570511,
    "description": "133 หมู่ 1 ทางหลวงชนบทหมายเลข ภก.4027 ต.สาคู อ.ถลาง จ.ภูเก็ต 83140",
    "description_en": "Rural Road PKT.4027, Sakhu, Thalang, Phuket 83140"
  },
  {
    "name": "โรงแรม ชิโน อิมพีเรียล ภูเก็ต",
    "name_en": "Sino Imperial Phuket Hotel",
    "latitude": 7.882586,
    "longitude": 98.391071,
    "description": "51 ต.ตลาดใหญ่ อ.เมืองภูเก็ต จ.ภูเก็ต 83000",
    "description_en": "51 Talat Yai, Muang Phuket, Phuket 83000"
  },
  {
    "name": "โรงแรม ชิโนเฮ้าส์ จำกัด โดยบริษัท ชิโนเฮ้าส์ จำกัด",
    "name_en": "โรงแรม ชิโนเฮ้าส์ จำกัด โดยบริษัท ชิโนเฮ้าส์ จำกัด",
    "latitude": 7.886001,
    "longitude": 98.393359,
    "description": "ถนนหลวงพ่อ ตลาดใหญ่ เมืองภูเก็ต จ.ภูเก็ต 83000",
    "description_en": "Luang Pho Rd., Talat Yai, Mueang Phuket, Phuket 83000"
  },
  {
    "name": "โรงแรม ชีหลง รีสอร์ท",
    "name_en": "Cheelong Resort",
    "latitude": 16.2326946537558,
    "longitude": 103.276604712009,
    "description": "ต.ท่าขอนยาง อ.กันทรวิชัย จ.มหาสารคาม 44150",
    "description_en": "Tha Khon Yang, Kantharawichai, Maha Sarakham 44150"
  },
  {
    "name": "โรงแรม ชุมแพลากูน",
    "name_en": "ChumPhae Lagoon Hotel",
    "latitude": 16.5546317524182,
    "longitude": 102.116899341345,
    "description": "ต.หนองไผ่ อ.ชุมแพ จ.ขอนแก่น 40130",
    "description_en": "Nong Phai, Chum Phae, Khon Kaen 40130"
  },
  {
    "name": "โรงแรม ชูการ์ปาล์ม แกรนด์ ฮิลล์ไซด์",
    "name_en": "Sugar Palm Grand Hillside Hotel",
    "latitude": 7.81451957170066,
    "longitude": 98.3008307081716,
    "description": "40/36 ต.กะรน อ.เมืองภูเก็ต จ.ภูเก็ต 83100",
    "description_en": "Provincial Highway 4233 Karon Muang Phuket Phuket 83100"
  },
  {
    "name": "โรงแรม ชเลราญ หัวหิน",
    "name_en": "Chalelarn Hotel Hua Hin",
    "latitude": 12.5730746984482,
    "longitude": 99.9571108818054,
    "description": "53/1  ถนนแนบเคหาสน์ ต.หัวหิน อ.หัวหิน จ.ประจวบคีรีขันธ์ 77110",
    "description_en": "53/1  Naepkhehat Rd. Hua Hin Hua Hin Prachuap Khiri Khan 77110"
  },
  {
    "name": "โรงแรม ช่อฟ้า แกลเลอรี่",
    "name_en": "Sofa Gallery Hotel",
    "latitude": 17.8795692283061,
    "longitude": 102.725526080137,
    "description": "ทางหลวงจังหวัดหมายเลข 3018 ต.มีชัย อ.เมืองหนองคาย จ.หนองคาย 43000",
    "description_en": "Provincial Highway 3018 Mi Chai Muang Nong Khai Nong Khai 43000"
  },
  {
    "name": "โรงแรม ช่อไม้หอม",
    "name_en": "Chormaihom Hotel",
    "latitude": 16.729681333072,
    "longitude": 98.5678043961525,
    "description": "108 หมู่ 9 ต.แม่สอด อ.แม่สอด จ.ตาก 63110",
    "description_en": "108 M.9 Mae Sot, Mae Sot, Tak 63110"
  },
  {
    "name": "โรงแรม ช้างใหญ่ใจดี",
    "name_en": "Big Elephant hotel",
    "latitude": 15.8086652839674,
    "longitude": 104.156420230865,
    "description": "ต.ในเมือง อ.เมืองยโสธร จ.ยโสธร 35000",
    "description_en": "Nai Mueang, Mueang Yasothon, Yasothon 35000"
  },
  {
    "name": "โรงแรม ซลีพ วิท มี",
    "name_en": "Sleep with Me",
    "latitude": 7.90269434452057,
    "longitude": 98.3078795671463,
    "description": "39/117-122 ต.ป่าตอง อ.กะทู้ จ.ภูเก็ต 83150",
    "description_en": "39/117-122 Pa Tong Krathu Phuket 83150"
  },
  {
    "name": "โรงแรม ซอยสี่ เซอร์วิสเรสซิเด้นท์",
    "name_en": "Soi 4 service resident",
    "latitude": 14.47110900452,
    "longitude": 100.130990445614,
    "description": "ทางหลวงแผ่นดินหมายเลข 340 ต.ท่าระหัด อ.เมืองสุพรรณบุรี จ.สุพรรณบุรี 72000",
    "description_en": "National Highway 340, Tha Rahat, Mueang Suphan Buri, Suphan Buri 72000"
  },
  {
    "name": "โรงแรม ซอร์เรนโต โฮเต็ล แอนด์ เรสซิเดนซ์",
    "name_en": "Sorrento Hotel and Residence",
    "latitude": 16.4631123482436,
    "longitude": 102.828360646963,
    "description": "หลัง ม.ขอนแก่น ฝั่งกังสดาล ในเมือง เมืองขอนแก่น จ.ขอนแก่น 40000",
    "description_en": "Nai Mueang, Mueang Khon Kaen, Khon Kaen 40000"
  },
  {
    "name": "โรงแรม ซันชายน์ พลู วิลล่า",
    "name_en": "Sunshine Pool Villa",
    "latitude": 12.3876321315765,
    "longitude": 99.9914109706879,
    "description": "478/20 ม.2 ต.ปากน้ำปราณ อ.ปราณบุรี จ.ประจวบคีรีขันธ์ 77220",
    "description_en": "478/20 Moo2 Pak Nam Pran Pran Buri Prachuap Khiri Khan 77220"
  },
  {
    "name": "โรงแรม ซันธารา เวลเนส รีสอร์ท",
    "name_en": "Suntara Wellness Resort & Hotel",
    "latitude": 13.6455371921089,
    "longitude": 101.09008668446,
    "description": "5/2 หมู่1 ถนนศุขประยูร ต.คลองนา อ.เมืองฉะเชิงเทรา จ.ฉะเชิงเทรา 24000",
    "description_en": "Khlong Na Muang Chachoengsao Chachoengsao 24000"
  },
  {
    "name": "โรงแรม ซันนี เรสซิเดนซ์",
    "name_en": "Sunny Residence Hotel",
    "latitude": 13.7268772394013,
    "longitude": 100.735520124435,
    "description": "แขวงลาดกระบัง เขตลาดกระบัง กรุงเทพมหานคร 10520",
    "description_en": "Lat Krabang, Lat Krabang, Bangkok 10520"
  },
  {
    "name": "โรงแรม ซันวิง รีสอร์ท แอนด์ สปา",
    "name_en": "Sunwing Resort & Spa",
    "latitude": 7.98748433589935,
    "longitude": 98.2888573408127,
    "description": "22 ม.2 ต.เชิงทะเล (เกาะกะลา) อ.ถลาง จ.ภูเก็ต 83110",
    "description_en": "22 Moo 2  Choeng Thale Tha Lang Phuket 83110"
  },
  {
    "name": "โรงแรม ซันไชน์ การ์เด้น พัทยา",
    "name_en": "โรงแรม ซันไชน์ การ์เด้น พัทยา",
    "latitude": 12.951688,
    "longitude": 100.886984,
    "description": "ซอยนาเกลือ 22 นาเกลือ บางละมุง จ.ชลบุรี 20150",
    "description_en": "Soi Nakluea 22, Na Kluea, Bang Lamung, Chon Buri 20150"
  },
  {
    "name": "โรงแรม ซันไชน์ ฮิป",
    "name_en": "Sunshine Hip Hotel",
    "latitude": 12.9468938670602,
    "longitude": 100.887819975615,
    "description": "436/617 ซอยพัทยา 1 ต.นาเกลือ อ.บางละมุง จ.ชลบุรี 20150",
    "description_en": "436/617 Soi Pattaya 1., Na Kluea, Bang Lamung, Chon Buri 20150"
  },
  {
    "name": "โรงแรม ซันไรซ์ เกาะพงัน",
    "name_en": "Sunrise Hotel Phangan",
    "latitude": 9.7001177072525,
    "longitude": 100.022395849228,
    "description": "ต.บ้านใต้ (เกาะกงธารเสด็จ) อ.เกาะพะงัน จ.สุราษฎร์ธานี 84280",
    "description_en": "Ban Tai (Ko Kong Than Sadet) Ko Phangan Surat Thani 84280"
  },
  {
    "name": "โรงแรม ซันไรส์ ลากูน โฮเทล แอนด์ กอล์ฟ",
    "name_en": "Sunrise Lagoon Hotel and Golf",
    "latitude": 13.6785045138645,
    "longitude": 101.237834841013,
    "description": "ทางหลวงแผ่นดินหมายเลข 304 ต.ท่าทองหลาง อ.บางคล้า จ.ฉะเชิงเทรา 24110",
    "description_en": "National Highway 304, Tha Thong Lang, Bang Khla, Chachoengsao 24110"
  },
  {
    "name": "โรงแรม ซัมเมอร์ ทรี",
    "name_en": "Summer Tree Hotel",
    "latitude": 13.6984145501509,
    "longitude": 100.681894719601,
    "description": "90/55 แขวงดอกไม้ เขตประเวศ กรุงเทพมหานคร 10250",
    "description_en": "90/55 Dokmai, Prawet, Bangkok 10250"
  },
  {
    "name": "โรงแรม ซัมเมอร์ สเตย์",
    "name_en": "Summer Stay Hotel",
    "latitude": 12.6649584301553,
    "longitude": 100.899109393358,
    "description": "ถนนเทศบาล 9 ต.สัตหีบ อ.สัตหีบ จ.ชลบุรี 20180",
    "description_en": "Thetsaban 9 Rd., Sattahip, Sattahip, Chon Buri 20180"
  },
  {
    "name": "โรงแรม ซาน พาเรนี เชียงใหม่",
    "name_en": "San Pareni Hotel Chiang Mai",
    "latitude": 18.7451258795515,
    "longitude": 98.9555472135544,
    "description": "ทางหลวงชนบทหมายเลข 3029 45/8 หมู่ 1 ต.แม่เหียะ อ.เมืองเชียงใหม่ จ.เชียงใหม่ 50100",
    "description_en": "Rural Road 3029, 45/8 Moo 1 Mae Hia, Muang Chiang Mai, Chiang Mai 50100"
  },
  {
    "name": "โรงแรม ซาวด์ แอท สลีพ",
    "name_en": "Sound@sleep Hotel",
    "latitude": 13.7756007918646,
    "longitude": 100.564654022455,
    "description": "ถนนประชาสงเคราะห์ แขวงดินแดง เขตดินแดง กรุงเทพมหานคร 10400",
    "description_en": "Pracha Songkhro Rd., Din Daeng, Din Daeng, Bangkok 10400"
  },
  {
    "name": "โรงแรม ซิกตี้ซิก เพลส",
    "name_en": "Sixty Six Place Hotel",
    "latitude": 7.5473072760012,
    "longitude": 99.6237605810165,
    "description": "66 หมู่ 8 ต.ทับเที่ยง อ.เมืองตรัง จ.ตรัง 92000",
    "description_en": "66 Moo 8, Thap Thiang, Mueang Trang, Trang 92000"
  },
  {
    "name": "โรงแรม ซิติลอฟท์ หัวหิน",
    "name_en": "Citin Loft Hua Hin",
    "latitude": 12.5662634420086,
    "longitude": 99.9576580385302,
    "description": "ซอยหัวหิน 80 (ไร่นุ่น 1) ต.หัวหิน อ.หัวหิน จ.ประจวบคีรีขันธ์ 77110",
    "description_en": "Soi Hua Hin 80 (Rai Nun 1) Hua Hin Hua Hin Prachuap Khiri Khan 77110"
  },
  {
    "name": "โรงแรม ซิตี้พลาซ่านานา",
    "name_en": "City Plaza Nana Hotel",
    "latitude": 13.7447887491533,
    "longitude": 100.553907752091,
    "description": "ซอยสุขุมวิท 3 (นานาเหนือ) แขวงคลองเตยเหนือ เขตวัฒนา กรุงเทพมหานคร 10110",
    "description_en": "Soi Sukhumwit 3 (Nana Nuea) Khlong Toei Nuae Watthana Bangkok 10110"
  },
  {
    "name": "โรงแรม ซิทอิน ประตูน้ำ",
    "name_en": "Citin Pratunam",
    "latitude": 13.7545609474182,
    "longitude": 100.539547204971,
    "description": "88/19 แขวงถนนพญาไท เขตราชเทวี กรุงเทพมหานคร 10400",
    "description_en": "88/19 Thanon Phaya Thai Ratchathewi Bangkok 10400"
  },
  {
    "name": "โรงแรม ซิทาดีน บางกอก สุขุมวิท 11",
    "name_en": "Citadines Bangkok Sukhumvit 11",
    "latitude": 13.7439501285553,
    "longitude": 100.556852817535,
    "description": "ซอยสุขุมวิท 11 (ไชยยศ) แขวงคลองเตยเหนือ เขตวัฒนา กรุงเทพมหานคร 10110",
    "description_en": "Soi Sukhumwit 11 (Chai Yot) Khlong Toei Nuae Watthana Bangkok 10110"
  },
  {
    "name": "โรงแรม ซิลค์สวีท",
    "name_en": "Silk Suite Hotel",
    "latitude": 13.7225245450149,
    "longitude": 100.516971051747,
    "description": "346/11 ถนนสีลม แขวงสุริยวงศ์ เขตบางรัก กรุงเทพมหานคร 10500",
    "description_en": "346/11 SiLom Rd. Suriyawong Bang Rak Bangkok 10500"
  },
  {
    "name": "โรงแรม ซิลค์สวีท",
    "name_en": "Silk Suite Hotel",
    "latitude": 13.7224822032332,
    "longitude": 100.516936853582,
    "description": "346/11 ถนนสีลม แขวงสุริยวงศ์ เขตบางรัก กรุงเทพมหานคร 10500",
    "description_en": "346/11 SiLom Rd. Suriyawong Bang Rak Bangkok 10500"
  },
  {
    "name": "โรงแรม ซิลเวอร์ สูท",
    "name_en": "Silver Suite",
    "latitude": 13.6937355806452,
    "longitude": 100.639210031329,
    "description": "ซอยสุภาพงษ์ แขวงหนองบอน เขตประเวศ กรุงเทพมหานคร 10260",
    "description_en": "Soi Suphaphong, Nong Bon, Prawet, Bangkok 10260"
  },
  {
    "name": "โรงแรม ซี ชะอำ",
    "name_en": "C Cha Am",
    "latitude": 12.7953667142401,
    "longitude": 99.9795207381249,
    "description": "ถนนนราธิป ต.ชะอำ อ.ชะอำ จ.เพชรบุรี 76120",
    "description_en": "Narathip Rd., Cha-Am, Cha-Am, Phetchaburi 76120"
  },
  {
    "name": "โรงแรม ซี ทรู บาย เดอะ ซายน์",
    "name_en": "Z Through By The Zign Hotel",
    "latitude": 12.9713559933894,
    "longitude": 100.893770456314,
    "description": "555/74 หมู่ 5 ซอยนาเกลือ 12 ต.นาเกลือ อ.บางละมุง จ.ชลบุรี 20150",
    "description_en": "555/74 Moo.5, Soi Nakluea 12, Na Kluea, Bang Lamung, Chon Buri 20150"
  },
  {
    "name": "โรงแรม ซี ทาวน์เวอร์",
    "name_en": "C-Tower Hotel",
    "latitude": 9.11563130795527,
    "longitude": 99.2982409894466,
    "description": "140 หมู่ 10 ต.วัดประดู่ อ.เมืองสุราษฎร์ธานี จ.สุราษฎร์ธานี 84000",
    "description_en": "140 Moo 10, Wat Pradu, Mueang Surat Thani, Surat Thani 84000"
  },
  {
    "name": "โรงแรม ซี บี ดี",
    "name_en": "โรงแรม ซี บี ดี",
    "latitude": 9.143446,
    "longitude": 99.325069,
    "description": "ถนนหน้าเมือง ตลาด เมืองสุราษฎร์ธานี จ.สุราษฎร์ธานี 84000",
    "description_en": "Na Mueang Rd., Talat, Mueang Surat Thani, Surat Thani 84000"
  },
  {
    "name": "โรงแรม ซี สโตน",
    "name_en": "Sea Stone Hotel",
    "latitude": 8.99940753734991,
    "longitude": 99.917596578598,
    "description": "327/55 ต.สิชล อ.สิชล จ.นครศรีธรรมราช 80120",
    "description_en": "Sichon, Sichon, Nakhon Si Thammarat 80120"
  },
  {
    "name": "โรงแรม ซี ออลโซ",
    "name_en": "See Also Jomtien",
    "latitude": 12.8417004666101,
    "longitude": 100.910817235708,
    "description": "ถนนสุขุมวิท ต.นาจอมเทียน อ.สัตหีบ จ.ชลบุรี 20250",
    "description_en": "Sukhumvit Rd., Na Chom Thian, Sattahip, Chon Buri 20250"
  },
  {
    "name": "โรงแรม ซี เอช",
    "name_en": "C H Hotel",
    "latitude": 18.7821632623672,
    "longitude": 99.0020084381104,
    "description": "10 ถนนช้างคลาน ต.ช้างคลาน อ.เมืองเชียงใหม่ จ.เชียงใหม่ 50100",
    "description_en": "10 Chang Khlan Rd. Chang Khlan Muang Chiang Mai Chiang Mai 50100"
  },
  {
    "name": "โรงแรม ซี เอช",
    "name_en": "C H Hotel",
    "latitude": 18.7820119021302,
    "longitude": 99.0020245175832,
    "description": "110 ถ.เจริญประเทศ  ต.ช้างคลาน อ.เมืองเชียงใหม่ จ.เชียงใหม่ 50100",
    "description_en": "Chang Khlan Muang Chiang Mai Chiang Mai 50100"
  },
  {
    "name": "โรงแรม ซี.เค รีสอร์ท",
    "name_en": "CK Resort Hotel",
    "latitude": 8.32380575957228,
    "longitude": 100.255171358585,
    "description": "192 หมู่ 3ต.บางพระ อ.ปากพนัง จ.นครศรีธรรมราช 80140",
    "description_en": "Bang Phra, Pak Phanang, Nakhon Si Thammarat 80140"
  },
  {
    "name": "โรงแรม ซีซั่น พาเลซ หัวหิน",
    "name_en": "Season Palace Hua Hin",
    "latitude": 12.637354679522,
    "longitude": 99.9482649425614,
    "description": "1995 ถ.เพชรเกษม อ.ชะอำ จ.เพชรบุรี 76120",
    "description_en": "1995 Cha-am, Cha Am, Phetchaburi 76120"
  },
  {
    "name": "โรงแรม ซีซั่น ไฟว์",
    "name_en": "Season Five Hotel",
    "latitude": 12.9435335187488,
    "longitude": 100.887224525213,
    "description": "235/3 หมู่ 9 ซอยพัทยา 5 ต.นาเกลือ อ.บางละมุง จ.ชลบุรี 20150",
    "description_en": "235/3 Moo 9, Soi Pattaya 5., Na Kluea, Bang Lamung, Chon Buri 20150"
  },
  {
    "name": "โรงแรม ซีทูยู อุทัยธานี",
    "name_en": "C2U Hotel Uthai Thani",
    "latitude": 15.3635910326957,
    "longitude": 99.9839128553867,
    "description": "ทางหลวงแผ่นดินหมายเลข 333 ต.ท่าโพ อ.หนองขาหย่าง จ.อุทัยธานี 61130",
    "description_en": "National Highway 333, Tha Pho, Nong Khayang, Uthai Thani 61130"
  },
  {
    "name": "โรงแรม ซีบีดี ทู",
    "name_en": "CBD 2 Hotel",
    "latitude": 9.14301668259763,
    "longitude": 99.3209807574749,
    "description": "ต.บางใบไม้ อ.เมืองสุราษฎร์ธานี จ.สุราษฎร์ธานี 84000",
    "description_en": "Bang Bai Mai, Mueang Surat Thani, Surat Thani 84000"
  },
  {
    "name": "โรงแรม ซีวาย เรสซิเดนซ์",
    "name_en": "CY Hotel & Residence",
    "latitude": 13.1099239244952,
    "longitude": 100.972009152174,
    "description": "888 ม.11 ต.หนองขาม อ.ศรีราชา จ.ชลบุรี 20110",
    "description_en": "Nong Kham, Si Racha, Chon Buri 20110"
  },
  {
    "name": "โรงแรม ซีวิว รีสอร์ท",
    "name_en": "โรงแรม ซีวิว รีสอร์ท",
    "latitude": 12.685856,
    "longitude": 101.269527,
    "description": "เชิงเนิน เมืองระยอง จ.ระยอง 21000",
    "description_en": "Choeng Noen, Mueang Rayong, Rayong 21000"
  },
  {
    "name": "โรงแรม ซีแอนด์ซี โฮสเทล น่าน",
    "name_en": "โรงแรม ซีแอนด์ซี โฮสเทล น่าน",
    "latitude": 18.794566,
    "longitude": 100.787823,
    "description": "ถนนวรวิชัย ในเวียง เมืองน่าน จ.น่าน 55000",
    "description_en": "Wora Wichai Rd., Nai Wiang, Mueang Nan, Nan 55000"
  },
  {
    "name": "โรงแรม ฌ ทรอปิคานา ลันตา รีสอร์ท",
    "name_en": "Chaw Ka Cher Tropicana Lanta Resort",
    "latitude": 7.58815169334412,
    "longitude": 99.0357452630997,
    "description": "352 ม.2 ต.ศาลาด่าน อ.เกาะลันตา จ.กระบี่ 81150",
    "description_en": "352 Moo 2, Sala Dan, Ko Lanta, Krabi 81150"
  },
  {
    "name": "โรงแรม ณ ท่าแพ",
    "name_en": "Na Thapae Hotel",
    "latitude": 18.786444067955,
    "longitude": 98.9941495656967,
    "description": "9-11 ต.ช้างคลาน อ.เมืองเชียงใหม่ จ.เชียงใหม่ 50100",
    "description_en": "9-11 Chang Khlan Muang Chiang Mai Chiang Mai 50100"
  },
  {
    "name": "โรงแรม ณ ท่าแพ",
    "name_en": "Na Thapae Hotel",
    "latitude": 18.7860063033355,
    "longitude": 98.994224653769,
    "description": "9-11 ถนนท่าแพ ซอย 6 ต.ช้างคลาน อ.เมืองเชียงใหม่ จ.เชียงใหม่ 50100",
    "description_en": "Chang Khlan Muang Chiang Mai Chiang Mai 50100"
  },
  {
    "name": "โรงแรม ณ ท่าโรงช้าง",
    "name_en": "โรงแรม ณ ท่าโรงช้าง",
    "latitude": 9.046007,
    "longitude": 99.164026,
    "description": "ทางหลวงแผ่นดินหมายเลข 4133 ท่าโรงช้าง พุนพิน จ.สุราษฎร์ธานี 84130",
    "description_en": "National Highway 4133, Tha Rong Chang, Phunphin, Surat Thani 84130"
  },
  {
    "name": "โรงแรม ณ ท่าโรงช้าง",
    "name_en": "The Lephant Hotel",
    "latitude": 9.05042470080742,
    "longitude": 99.1659490764141,
    "description": "ต.ท่าโรงช้าง อ.พุนพิน จ.สุราษฎร์ธานี 84130",
    "description_en": "Tha Rong Chang, Phunphin, Surat Thani 84130"
  },
  {
    "name": "โรงแรม ณ บางลำภู",
    "name_en": "Na Banglampoo Hotel",
    "latitude": 13.7627132179757,
    "longitude": 100.498006492853,
    "description": "ถนนพระสุเมรุ แขวงชนะสงคราม เขตพระนคร กรุงเทพมหานคร 10200",
    "description_en": "Phrasumen Rd., Chana Songkhram, Phra Nakhon, Bangkok 10200"
  },
  {
    "name": "โรงแรม ณ บ้านย่า เชียงใหม่",
    "name_en": "Na BaanYa Chiang Mai Hotel",
    "latitude": 18.7794356814813,
    "longitude": 98.9921687543392,
    "description": "ซอยเชียงแสน 2 ต.หายยา อ.เมืองเชียงใหม่ จ.เชียงใหม่ 50100",
    "description_en": "Soi Chiang Saen 2, Hai Ya, Mueang Chiang Mai, Chiang Mai 50100"
  },
  {
    "name": "โรงแรม ณ วันวาน รีสอร์ท",
    "name_en": "Na Wanwarn Resort",
    "latitude": 16.5360024735345,
    "longitude": 104.727088361979,
    "description": "ต.ศรีบุญเรือง อ.เมืองมุกดาหาร จ.มุกดาหาร 49000",
    "description_en": "Si Bun Rueang, Mueang Mukdahan, Mukdahan 49000"
  },
  {
    "name": "โรงแรม ณ สราญ",
    "name_en": "Nasaraan boutique hotel",
    "latitude": 18.78712995219,
    "longitude": 99.0179890394211,
    "description": "42/3 ถนนทุ่งโอเต็ล ต.วัดเกต อ.เมืองเชียงใหม่ จ.เชียงใหม่ 50000",
    "description_en": "Thung Oten Rd., Wat Ket, Mueang Chiang Mai, Chiang Mai 50000"
  },
  {
    "name": "โรงแรม ณ สุโขทัย",
    "name_en": "Na Sukhothai Hotel",
    "latitude": 17.002502221711,
    "longitude": 99.8239150643349,
    "description": "ซอยเลอไท ต.ธานี อ.เมืองสุโขทัย จ.สุโขทัย 64000",
    "description_en": "soi loe thai, Thani, Mueang Sukhothai, Sukhothai 64000"
  },
  {
    "name": "โรงแรม ณ เพชร รีสอร์ท",
    "name_en": "Na Phet Resort Hotel",
    "latitude": 13.0855656176219,
    "longitude": 99.938033670187,
    "description": "ต.บ้านหม้อ อ.เมืองเพชรบุรี จ.เพชรบุรี 76000",
    "description_en": "Ban Mo, Mueang Phetchaburi, Phetchaburi 76000"
  },
  {
    "name": "โรงแรม ณ เลย บูทีค รีสอร์ท",
    "name_en": "Naloei Boutique Resort",
    "latitude": 17.5434077140491,
    "longitude": 101.727712154388,
    "description": "ทางหลวงแผ่นดินหมายเลข 201 ต.เมือง อ.เมืองเลย จ.เลย 42000",
    "description_en": "National Highway 201, Mueang, Mueang Loei, Loei 42000"
  },
  {
    "name": "โรงแรม ณ เวลา ราชบุรี",
    "name_en": "Navela Hotel & Banquet Ratchaburi",
    "latitude": 13.5098977780085,
    "longitude": 99.7991368174553,
    "description": "9/9 หมู่ 5 ต. ดอนตะโก เมืองจ.ราชบุรี 70000",
    "description_en": "Rural Road RBR.1010, Don Tako, Mueang Ratchaburi, Ratchaburi 70000"
  },
  {
    "name": "โรงแรม ณ. ฉัตรรีสอร์ท",
    "name_en": "Na Chut Resort Hotel",
    "latitude": 7.75927596469983,
    "longitude": 100.356672853231,
    "description": "ต.ปากแตระ อ.ระโนด จ.สงขลา 90140",
    "description_en": "Pak Trae, Ranot, Songkhla 90140"
  },
  {
    "name": "โรงแรม ณวัฒนอินน์",
    "name_en": "nwathn inn  utrditth",
    "latitude": 17.6211313012255,
    "longitude": 100.084436684847,
    "description": "ต.ท่าอิฐ อ.เมืองอุตรดิตถ์ จ.อุตรดิตถ์ 53000",
    "description_en": "Tha It, Mueang Uttaradit, Uttaradit 53000"
  },
  {
    "name": "โรงแรม ณัฐชาณา ฮิลล์ บูติก",
    "name_en": "Nutchana Hill Boutique Hotel",
    "latitude": 6.96445171574783,
    "longitude": 100.426839441061,
    "description": "1395 หมู่ 1 ต.ควนลัง อ.หาดใหญ่ จ.สงขลา 90110",
    "description_en": "1395 Moo 1, Khuan Lang, Hat Yai, Songkhla 90110"
  },
  {
    "name": "โรงแรม ณิก ณิก ทาวร์",
    "name_en": "โรงแรม ณิก ณิก ทาวร์",
    "latitude": 14.173915,
    "longitude": 101.25013,
    "description": "ทางหลวงแผ่นดินหมายเลข 33 เกาะหวาย ปากพลี จ.นครนายก 26130",
    "description_en": "National Highway 33, Ko Wai, Pak Phli, Nakhon Nayok 26130"
  },
  {
    "name": "โรงแรม ณิชา หัวหิน",
    "name_en": "Nicha Hua Hin Hotel",
    "latitude": 12.5497508038231,
    "longitude": 99.9622379104225,
    "description": "ถนนรุ่งสว่าง ต.หนองแก (เกาะสะเดา) อ.หัวหิน จ.ประจวบคีรีขันธ์ 77110",
    "description_en": "Rung Sawang Rd. Nong Kae (Ko Sa Dao) Hua Hin Prachuap Khiri Khan 77110"
  },
  {
    "name": "โรงแรม ณุศา พลาญ่า & สปา",
    "name_en": "Nusa Playa Hotel and SPA",
    "latitude": 12.9077909091286,
    "longitude": 100.881095663571,
    "description": "ซอยเทพประสิทธิ์ 10 ถนนเทพประสิทธิ์ ต.นาเกลือ อ.บางละมุง จ.ชลบุรี 20260",
    "description_en": "Soi Thep Prasit 10 Thep Pra Sit Rd. Na Kluea Bang La Mung Chon Buri 20260"
  },
  {
    "name": "โรงแรม ณุศา พลาญ่า & สปา",
    "name_en": "Nusa Playa Hotel and SPA",
    "latitude": 12.8801888299569,
    "longitude": 100.884040729069,
    "description": "ถนนหาดจอมเทียน ต.นาเกลือ อ.บางละมุง จ.ชลบุรี 20260",
    "description_en": "Had Jomthien Rd. Na Kluea Bang La Mung Chon Buri 20260"
  },
  {
    "name": "โรงแรม ดราก้อน ริเวอร์ อเวนิว พิษณุโลก",
    "name_en": "Dragon River Avenue Phitsanulok",
    "latitude": 16.8285870607175,
    "longitude": 100.264179557562,
    "description": "27/54 ถนนเอกาทศรฐ ตำบล ในเมือง อำเภอเมืองพิษณุโลก พิษณุโลก 65000",
    "description_en": "27/54 Rim Maenam Nan Khang Wat Rd.Rim Maenam Nan Khang W, Nai Mueang, Mueang Phitsanulok, Phitsanulok 65000"
  },
  {
    "name": "โรงแรม ดราก้อนบอล",
    "name_en": "Dragon Ball Hotel",
    "latitude": 12.7232822040146,
    "longitude": 101.173020601273,
    "description": "125 ถนนวัดมาบตาพุด ต.มาบตาพุด อ.เมืองระยอง จ.ระยอง 21150",
    "description_en": "Rural Road 7030, Map Ta Phut, Muang Rayong, Rayong 21150"
  },
  {
    "name": "โรงแรม ดวงตา อันดา",
    "name_en": "Dounta Anda",
    "latitude": 8.08462015557169,
    "longitude": 98.9027532935143,
    "description": "ต.ปากน้ำ อ.เมืองกระบี่ จ.กระบี่ 81000",
    "description_en": "Pak Nam, Mueang Krabi, Krabi 81000"
  },
  {
    "name": "โรงแรม ดอกคูณ รีสอร์ท",
    "name_en": "Dorkkoon Resort",
    "latitude": 7.92096935206535,
    "longitude": 99.922911375761,
    "description": "410 ม.4 ต.วังอ่าง อ.ชะอวด จ.นครศรีธรรมราช 80180",
    "description_en": "Wang Ang, Cha-Uat, Nakhon Si Thammarat 80180"
  },
  {
    "name": "โรงแรม ดอยช้างหลวง รีสอร์ท",
    "name_en": "โรงแรม ดอยช้างหลวง รีสอร์ท",
    "latitude": 18.285578,
    "longitude": 98.817184,
    "description": "ทางหลวงแผ่นดินหมายเลข 106 บ้านโฮ่ง บ้านโฮ่ง จ.ลำพูน 51130",
    "description_en": "National Highway 106, Ban Hong, Ban Hong, Lamphun 51130"
  },
  {
    "name": "โรงแรม ดับเบิลยู 14",
    "name_en": "W14 Hotel",
    "latitude": 12.9264461463457,
    "longitude": 100.87438210845,
    "description": "ซอยพัทยา 14 ต.หนองปรือ อ.บางละมุง จ.ชลบุรี 20150",
    "description_en": "Soi Phatthaya 14, Nong Prue, Bang Lamung, Chon Buri 20150"
  },
  {
    "name": "โรงแรม ดับเบิ้ล ไนน์ เฟรนด์ลี่ บูติก",
    "name_en": "Double Ninth Friendly Boutique Hotel",
    "latitude": 13.2827437602189,
    "longitude": 100.916248708963,
    "description": "12/20 ถนนบางแสนล่าง ซอย 2 ต.แสนสุข อ.เมืองชลบุรี จ.ชลบุรี 20130",
    "description_en": "12/20 Soi 2 Bangsaenlang Rd., Saen Suk, Mueang Chon Buri, Chon Buri 20130"
  },
  {
    "name": "โรงแรม ดับเบิ้ลทรี บาย ฮิลตัน สุขุมวิท กรุงเทพ",
    "name_en": "Double Tree By Hilton Sukhumvit",
    "latitude": 13.7280380311187,
    "longitude": 100.570096224546,
    "description": "18/1 ซอย สุขุมวิท 26 แขวงคลองตัน เขตคลองเตย กรุงเทพมหานคร",
    "description_en": "Soi Sukhumwit 26, Khlong Tan, Khlong Toei, Bangkok 10110"
  },
  {
    "name": "โรงแรม ดำรงชีพ อินน์ รีสอร์ท",
    "name_en": "mrungcheep Inn Resort",
    "latitude": 12.7670865429782,
    "longitude": 101.644037947811,
    "description": "ต.วังหว้า อ.แกลง จ.ระยอง 21110",
    "description_en": "Wang Wa Klang Rayong 21110"
  },
  {
    "name": "โรงแรม ดิ อะเวลล์ อยุธยา",
    "name_en": "The Avail Hotel Ayutthaya",
    "latitude": 14.3586918734821,
    "longitude": 100.571374297142,
    "description": "ต.ประตูชัย อ.พระนครศรีอยุธยา จ.พระนครศรีอยุธยา 13000",
    "description_en": "Pratu Chai, Phra Nakhon Si Ayutthaya, Phra Nakhon Si Ayutthaya 13000"
  },
  {
    "name": "โรงแรม ดิ อัลบั้ม",
    "name_en": "The Album Hotel",
    "latitude": 7.89737820625305,
    "longitude": 98.2995164394379,
    "description": "29 ต.ป่าตอง อ.กะทู้ จ.ภูเก็ต 83150",
    "description_en": "29 Pa Tong Krathu Phuket 83150"
  },
  {
    "name": "โรงแรม ดิ อิมพีเรียล ธารา แม่ฮ่องสอน",
    "name_en": "The Imperial Tara Mae Hong Son Hotel",
    "latitude": 19.29176,
    "longitude": 97.96441,
    "description": "ถนนขุนลุมประพาส ต.จองคำ อ.เมืองแม่ฮ่องสอน จ.แม่ฮ่องสอน 58000",
    "description_en": ""
  },
  {
    "name": "โรงแรม ดิ อิมพีเรียล นราธิวาส",
    "name_en": "The Imperial Narathiwat Hotel",
    "latitude": 6.4288162612915,
    "longitude": 101.819254771423,
    "description": "ซอยอาราม ถนนสุขเกษม ต.บางนาค อ.เมืองนราธิวาส จ.นราธิวาส 96000",
    "description_en": ""
  },
  {
    "name": "โรงแรม ดิ อิมพีเรียล โฮม แอนด์ รีสอร์ท",
    "name_en": "The Imperial Home Hotel & Resort",
    "latitude": 13.8966,
    "longitude": 100.560219,
    "description": "29/336-7 ซอยแจ้งวัฒนะ 14 ถนนแจ้งวัฒนะ แขวงทุ่งสองห้อง เขตหลักสี่ กรุงเทพฯ 10210 โทรศัพท์ 02-9826635, 02-99107856",
    "description_en": ""
  },
  {
    "name": "โรงแรม ดิ อิมพีเรียล โฮเทล แอนด์ คอนเวนชั่น เซ็นเตอร์ พิษณุโลก",
    "name_en": "The Imperial Hotel and Convention Centre Phitsanulok",
    "latitude": 16.824298,
    "longitude": 100.287684,
    "description": "52/299 ถนนพระองค์ขาว ต.อรัญญิก อ.เมืองพิษณุโลก จ.พิษณุโลก 65000",
    "description_en": "52/299, Aranyik, Mueang Phitsanulok, Phitsanulok 65000 Thailand"
  },
  {
    "name": "โรงแรม ดิ อิมพีเรียล โฮเทล แอนด์ คอนเวนชั่น เซ็นเตอร์ โคราช",
    "name_en": "The Imperial Hotel and Convention Centre Korat",
    "latitude": 14.9922504021262,
    "longitude": 102.12143227458,
    "description": "(ชื่อเดิมโรงแรมดุสิต ปริ๊นเซส โคราช) 1137 ถนนสุรนารายณ์ ต.ในเมือง อ.เมืองนครราชสีมา จ.นครราชสีมา 30000",
    "description_en": "1137 Suranarai Rd., Naimuang District\nAmphur Muang, Nakhon Ratchasima\n30000"
  },
  {
    "name": "โรงแรม ดิ เอทัส กรุงเทพ",
    "name_en": "The AETAS bangkok",
    "latitude": 13.738307072688,
    "longitude": 100.549182356309,
    "description": "ซอยร่วมฤดี แขวงลุมพินี เขตปทุมวัน กรุงเทพมหานคร 10400",
    "description_en": "Soi Ruamruedi, Lum Phini, Patumwan, Bangkok 10400"
  },
  {
    "name": "โรงแรม ดิ เอม สาทร",
    "name_en": "The Aim Sathorn Hotel",
    "latitude": 13.7197182454681,
    "longitude": 100.548462867737,
    "description": "106/1 ซอยศรีบำเพ็ญ แขวงทุ่งมหาเมฆ เขตสาทร กรุงเทพมหานคร 10120",
    "description_en": "Soi Sri Bamphen, Thung Mahamek, Sathon, Bangkok 10120"
  },
  {
    "name": "โรงแรม ดิ เอมเพรส ขอนแก่น",
    "name_en": "The Impress Khonkaen Hotel",
    "latitude": 16.4628834183167,
    "longitude": 102.829095572233,
    "description": "หลัง ม.ขอนแก่น ฝั่งกังสดาล ในเมือง เมืองขอนแก่น จ.ขอนแก่น 40000",
    "description_en": "Nai Mueang, Mueang Khon Kaen, Khon Kaen 40000"
  },
  {
    "name": "โรงแรม ดิ เอลลิเมนท์ กระบี่ รีสอร์ท",
    "name_en": "The Elements Krabi Resort",
    "latitude": 8.07569682598114,
    "longitude": 98.7432557344437,
    "description": "189 หมู่ 3 ต.หนองทะเล อ.เมือง  จ.กระบี่",
    "description_en": "189 Moo 3  T.Nongtalay, A.Muang  Krabi"
  },
  {
    "name": "โรงแรม ดิ เอิร์ธ",
    "name_en": "The Earth Creative Lifestyle Hotel",
    "latitude": 18.7977540703234,
    "longitude": 98.9749825000763,
    "description": "ถนนห้วยแก้ว (ทางหลวงแผ่นดินหมายเลข 1004) ต.ช้างเผือก อ.เมืองเชียงใหม่ จ.เชียงใหม่ 50300",
    "description_en": "HuayKaew Rd. (National Highway 1004), Chang Phueak, Mueang Chiang Mai, Chiang Mai 50300"
  },
  {
    "name": "โรงแรม ดิ เอ็มเพรส พรีเมียร์ เชียงใหม่",
    "name_en": "The Empress Premier Chiang Mai",
    "latitude": 18.7749344971908,
    "longitude": 99.0015994012356,
    "description": "ถนนเจริญประเทศ ต.ช้างคลาน อ.เมืองเชียงใหม่ จ.เชียงใหม่ 50100",
    "description_en": "Charoen Prathet Rd., Chang Khlan, Mueang Chiang Mai, Chiang Mai 50100"
  },
  {
    "name": "โรงแรม ดิ แอนทีค เชียงใหม่",
    "name_en": "The An -Teak Chiang Mai",
    "latitude": 18.7897644608102,
    "longitude": 98.99320140481,
    "description": "ถนนมูลเมือง ต.ศรีภูมิ อ.เมืองเชียงใหม่ จ.เชียงใหม่ 50200",
    "description_en": "Mun Mueang Rd., Si Phum, Mueang Chiang Mai, Chiang Mai 50200"
  },
  {
    "name": "โรงแรม ดิ แอ๊ป เปิ้ล ฮิป โฮเต็ล",
    "name_en": "The Apple Hip Hotel",
    "latitude": 9.97369547291014,
    "longitude": 98.6296158891714,
    "description": "ต.บางนอน อ.เมืองระนอง จ.ระนอง 85000",
    "description_en": "Bang Non Muang Ranong Ranong 85000"
  },
  {
    "name": "โรงแรม ดิ โอลด์ ภูเก็ต",
    "name_en": "The Old Phuket Hotel",
    "latitude": 7.84313771550237,
    "longitude": 98.2959973675274,
    "description": "192/36 หาดกะรน ต.กะรน อ.เมืองภูเก็ต จ.ภูเก็ต 83100",
    "description_en": "Provincial Highway 4233 Karon Muang Phuket Phuket 83100"
  },
  {
    "name": "โรงแรม ดิ โอเอซิส",
    "name_en": "The Oasis",
    "latitude": 13.7797128386934,
    "longitude": 100.581032931805,
    "description": "ซอย 20 มิถุนา แขวงห้วยขวาง เขตห้วยขวาง กรุงเทพมหานคร 10310",
    "description_en": "Soi 20 Mithuna, Huai Khwang, Huai Khwang, Bangkok 10310"
  },
  {
    "name": "โรงแรม ดิ โอโซน บูทิค",
    "name_en": "The Ozone Boutique Hotel",
    "latitude": 17.4216562999426,
    "longitude": 102.79188528657,
    "description": "17/7 ถนนอุดรดุษฏี ต.หมากแข้ง อ.เมืองอุดรธานี จ.อุดรธานี 41000",
    "description_en": "17/7 Udon Dusadee Rd., Mak Khaeng, Mueang Udon Thani, Udon Thani 41000"
  },
  {
    "name": "โรงแรม ดิ ไอวอรี่ สุวรรณภูมิ",
    "name_en": "The Ivory Suvarnabhumi Hotel",
    "latitude": 13.7219595336914,
    "longitude": 100.730356188965,
    "description": "ถนนลาดกระบัง แขวงลาดกระบัง เขตลาดกระบัง กรุงเทพมหานคร 10520",
    "description_en": ""
  },
  {
    "name": "โรงแรม ดิอิมเพรส น่าน",
    "name_en": "The Impress Nan Hotel",
    "latitude": 18.7592651214165,
    "longitude": 100.761238485575,
    "description": "ทางหลวงแผ่นดินหมายเลข 101 ดู่ใต้ เมืองน่าน จ.น่าน 55000",
    "description_en": "National Highway 101, Du Tai, Mueang Nan, Nan 55000"
  },
  {
    "name": "โรงแรม ดิเอมไพร์",
    "name_en": "The empire hotel",
    "latitude": 13.8339181329954,
    "longitude": 100.035766661167,
    "description": "ซอยอู่หล่ม 1 ต.หนองปากโลง อ.เมืองนครปฐม จ.นครปฐม 73000",
    "description_en": "Soi U Lom 1, Nong Pak Long, Mueang Nakhon Pathom, Nakhon Pathom 73000"
  },
  {
    "name": "โรงแรม ดิเอเรีย แอค",
    "name_en": "The Areaac hotel",
    "latitude": 18.3056235701726,
    "longitude": 99.3973083794117,
    "description": "ทางหลวงแผ่นดินหมายเลข 11 ต.ปงยางคก อ.ห้างฉัตร จ.ลำปาง 52190",
    "description_en": "National Highway 11, Pong Yang Khok, Hang Chat, Lampang 52190"
  },
  {
    "name": "โรงแรม ดิโอวาเลย์",
    "name_en": "The  O Valley  Hotel",
    "latitude": 9.067273,
    "longitude": 99.17502,
    "description": "ทางหลวงแผ่นดินหมายเลข 41 ต.ท่าโรงช้าง อ.พุนพิน จ.สุราษฎร์ธานี 84130",
    "description_en": "National Highway 41, Tha Rong Chang, Phun Phin, Surat Thani 84130"
  },
  {
    "name": "โรงแรม ดี 11",
    "name_en": "D11 Hotel Phitsanulok",
    "latitude": 16.8312108679784,
    "longitude": 100.270476043224,
    "description": "ต.ในเมือง อ.เมืองพิษณุโลก จ.พิษณุโลก 65000",
    "description_en": "Nai Mueang, Mueang Phitsanulok, Phitsanulok 65000"
  },
  {
    "name": "โรงแรม ดี วารี จอมเทียน บีช พัทยา",
    "name_en": "D Varee Jomtien Beach",
    "latitude": 12.880264,
    "longitude": 100.884227,
    "description": "457 ม.12 ซอยจอมเทียน 13-14 ถนนหาดจอมเทียน ต.นาเกลือ อ.บางละมุง จ.ชลบุรี 20260",
    "description_en": "457 Moo 12 Jomtien, Soi 13-14 Beach Road, Nongprue, Banglamung, Chonburi 20260"
  },
  {
    "name": "โรงแรม ดี วารี ดีว่า เซ็นทรัล ระยอง",
    "name_en": "โรงแรม ดี วารี ดีว่า เซ็นทรัล ระยอง",
    "latitude": 12.6817,
    "longitude": 101.239915,
    "description": "ถนนแสงจันทร์ เนินพระ เมืองระยอง จ.ระยอง 21000",
    "description_en": "Saengchan Rd., Noen Phra, Mueang Rayong, Rayong 21000"
  },
  {
    "name": "โรงแรม ดี. เดย์",
    "name_en": "D.Day Hotel",
    "latitude": 16.4406283391156,
    "longitude": 103.4150134027,
    "description": "ทางหลวงแผ่นดินหมายเลข 2416 ต.ดอนสมบูรณ์ อ.ยางตลาด จ.กาฬสินธุ์ 46120",
    "description_en": "National Highway 2416, Don Sombun, Yang Talat, Kalasin 46120"
  },
  {
    "name": "โรงแรม ดีพร้อม พัทยา",
    "name_en": "DeeProm Pattaya Hotel",
    "latitude": 12.9326993219438,
    "longitude": 100.895377099514,
    "description": "ซอยนกเขา ต.หนองปรือ อ.บางละมุง จ.ชลบุรี 20150",
    "description_en": "Soi Nokkhao, Nong Prue, Bang Lamung, Chon Buri 20150"
  },
  {
    "name": "โรงแรม ดีวัน หาดป่าตอง",
    "name_en": "D1 Hotel Patong Beach",
    "latitude": 7.88610109107566,
    "longitude": 98.297917842865,
    "description": "81/1 ถนนผังเมือง สาย ก. ต.ป่าตอง อ.กะทู้ จ.ภูเก็ต 83150",
    "description_en": "81/1 Phungmuang Sai Kor Road, Pa Tong, Kathu, Phuket 83150"
  },
  {
    "name": "โรงแรม ดีไลท์ อยุธยา รีสอร์ท",
    "name_en": "Delight",
    "latitude": 14.423149444377,
    "longitude": 100.560247153044,
    "description": "ต.ขยาย อ.บางปะหัน จ.พระนครศรีอยุธยา 13220",
    "description_en": "Khayai, Bang Pahan, Phra Nakhon Si Ayutthaya 13220"
  },
  {
    "name": "โรงแรม ดุสิต ดีทู เขาใหญ่",
    "name_en": "DusitD2 Khao Yai",
    "latitude": 14.5070319545848,
    "longitude": 101.465252637863,
    "description": "ต.หมูสี อ.ปากช่อง จ.นครราชสีมา 30130",
    "description_en": "Mu Si, Pak Chong, Nakhon Ratchasima 30130"
  },
  {
    "name": "โรงแรม ดุสิตธานี ลากูน่า ภูเก็ต",
    "name_en": "Dusit Thani Laguna Phuket",
    "latitude": 8.00195501142902,
    "longitude": 98.294593244791,
    "description": "ต.เชิงทะเล อ.ถลาง จ.ภูเก็ต 83110",
    "description_en": "Choeng Thale, Thalang, Phuket 83110"
  },
  {
    "name": "โรงแรม ดุสิตา ปาร์ควิว",
    "name_en": "DUSITA PARK VIEW HOTEL",
    "latitude": 15.2528267990503,
    "longitude": 104.855531305075,
    "description": "ในเมือง เมืองอุบลราชธานี จ.อุบลราชธานี 34000",
    "description_en": "Nai Mueang, Mueang Ubon Ratchathani, Ubon Ratchathani 34000"
  },
  {
    "name": "โรงแรม ดูเขา ชมคลอง มองทะเล รีสอร์ท",
    "name_en": "Dookhao Chomklong Mongtalay Hotel",
    "latitude": 11.7470511382396,
    "longitude": 99.7900910675526,
    "description": "68 หมู่ 1 ต.คลองวาฬ อ.เมืองประจวบคีรีขันธ์ จ.ประจวบคีรีขันธ์ 77000",
    "description_en": "Khlong Wan, Mueang Prachuap Khiri Khan, Prachuap Khiri Khan 77000"
  },
  {
    "name": "โรงแรม ดูโอ รีสอร์ท",
    "name_en": "DUO Resort Hotel",
    "latitude": 12.3714703449994,
    "longitude": 99.9030402302742,
    "description": "ต.เขาน้อย อ.ปราณบุรี จ.ประจวบคีรีขันธ์ 77120",
    "description_en": "Khao Noi, Pran Buri, Prachuap Khiri Khan 77120"
  },
  {
    "name": "โรงแรม ตองเจ็ด โฮมเทล",
    "name_en": "777Hometel",
    "latitude": 17.4039920637416,
    "longitude": 104.785465300083,
    "description": "ถนนบำรุงเมือง ต.ในเมือง อ.เมืองนครพนม จ.นครพนม 48000",
    "description_en": "Bamrungmueang Rd., Nai Mueang, Mueang Nakhon Phanom, Nakhon Phanom 48000"
  },
  {
    "name": "โรงแรม ตะวัน คอร์ท",
    "name_en": "Tawan Court Hotel",
    "latitude": 18.7861891344359,
    "longitude": 99.0032958846561,
    "description": "15/1 ถนนเจริญประเทศ ต.ช้างคลาน อ.เมืองเชียงใหม่ จ.เชียงใหม่ 50100",
    "description_en": "15/1 Charoen Prathet Rd. Chang Khlan Muang Chiang Mai Chiang Mai 50100"
  },
  {
    "name": "โรงแรม ตะวัน อันดา การ์เด้น",
    "name_en": "tawan anda garden hotel",
    "latitude": 9.09980715961014,
    "longitude": 99.3200755119324,
    "description": "108 ม.3 ถนนพ่อขุนตาล มะขามเตี้ย เมืองสุราษฎร์ธานี จ.สุราษฎร์ธานี 84000",
    "description_en": "Pho Khuntan Rd., Makham Tia, Mueang Surat Thani, Surat Thani 84000"
  },
  {
    "name": "โรงแรม ตูร์เนอร์ซอล บูทิก โฮเต็ล (สระแก้ว)",
    "name_en": "Tournesol Boutique Hotel",
    "latitude": 13.6684693735679,
    "longitude": 102.537696361542,
    "description": "479 กม.5 ทางหลวงแผ่นดินหมายเลข 33 ต.อรัญประเทศ อ.อรัญประเทศ จ.สระแก้ว 27120",
    "description_en": "National Highway 33, Aranya Prathad, Aranyaprathet, Sa Kaeo 27120"
  },
  {
    "name": "โรงแรม ต้นคูน ชัยภูมิ",
    "name_en": "Tonkoon Hotel Chaiyaphum",
    "latitude": 15.8074239349386,
    "longitude": 102.026773095131,
    "description": "379 ถนนบรรณาการ ต.ในเมือง อ.เมืองชัยภูมิ จ.ชัยภูมิ 36000",
    "description_en": "379 Bannakan Rd., Nai Mueang, Mueang Chaiyaphum, Chaiyaphum 36000"
  },
  {
    "name": "โรงแรม ต้นอ้อ เพลส",
    "name_en": "Ton-aor Place",
    "latitude": 13.7898373603821,
    "longitude": 100.578310489655,
    "description": "67/2 ซอยเจริญศักดิ์ ถนนสุทธิสารวินิจฉัย แขวงสามเสนนอก เขตห้วยขวาง กรุงเทพมหานคร 10320",
    "description_en": "67/2 Soi Charoensak Suthisan Winitchai Rd. Sam Saen Nok Huai Khwang Bangkok 10320"
  },
  {
    "name": "โรงแรม ต้นไทร เบย์ รีสอร์ท",
    "name_en": "Tonsai Bay Resort",
    "latitude": 8.01761090755463,
    "longitude": 98.8333886861801,
    "description": "ทางหลวงชนบทหมายเลข 4020   จ.กระบี่",
    "description_en": "Rural Road 4020   Krabi"
  },
  {
    "name": "โรงแรม ทรอปปิคอล เฮอเบิล สปาแอนด์รีสอร์ท",
    "name_en": "Tropical Herbal Spa & Resort",
    "latitude": 8.03304433822632,
    "longitude": 98.8201385736466,
    "description": "20/1 หมู่ 2  อ.เมือง  จ.กระบี่",
    "description_en": "20/1 Moo 2 Muang   Krabi"
  },
  {
    "name": "โรงแรม ทรอปิคัล การ์เด้น เลานจ์",
    "name_en": "Tropical Garden Lounge",
    "latitude": 9.56724107265472,
    "longitude": 100.003754496574,
    "description": "ทางหลวงจังหวัดหมายเลข 4169 ต.แม่น้ำ อ.เกาะสมุย จ.สุราษฎร์ธานี 84320",
    "description_en": "Provincial Highway 4169 Mae Nam Ko Samui Surat Thani 84320"
  },
  {
    "name": "โรงแรม ทริปเปิล บี บูทิก เรสซิเดนซ์",
    "name_en": "Triple B Boutique Residence",
    "latitude": 13.1649119471307,
    "longitude": 100.932295024395,
    "description": "ต.สุรศักดิ์ อ.ศรีราชา จ.ชลบุรี 20110",
    "description_en": "Surasak, Si Racha, Chon Buri 20110"
  },
  {
    "name": "โรงแรม ทริปเปิลอินน์ 333",
    "name_en": "Triple Inn 333",
    "latitude": 13.9318127302162,
    "longitude": 100.666889101267,
    "description": "ถนนลำลูกกา ต.ลาดสวาย อ.ลำลูกกา จ.ปทุมธานี 12150",
    "description_en": "Lam Luk Ka Rd., Lat Sawai, Lam Luk Ka, Pathum Thani 12150"
  },
  {
    "name": "โรงแรม ทริปเปิ้ลซี",
    "name_en": "Triple Z Hotel",
    "latitude": 12.5745085664027,
    "longitude": 99.911290705204,
    "description": "ทางหลวงแผ่นดินหมายเลข 3218 ต.หินเหล็กไฟ อ.หัวหิน จ.ประจวบคีรีขันธ์ 77110",
    "description_en": "National Highway 3218, Hin Lek Fai, Hua Hin, Prachuap Khiri Khan 77110"
  },
  {
    "name": "โรงแรม ทริมม์ จันทบุรี",
    "name_en": "TRIMM",
    "latitude": 12.6185059995125,
    "longitude": 102.093067914248,
    "description": "ทางหลวงแผ่นดินหมายเลข 3153 ต.วัดใหม่ อ.เมืองจันทบุรี จ.จันทบุรี 22000",
    "description_en": "National Highway 3153, Wat Mai, Mueang Chanthaburi, Chanthaburi 22000"
  },
  {
    "name": "โรงแรม ทวาราวดีรีสอร์ท ปราจีนบุรี",
    "name_en": "Tawaravadee Hotel",
    "latitude": 13.9184990380431,
    "longitude": 101.569440364838,
    "description": "ทางหลวงแผ่นดินหมายเลข 3079 ต.ท่าตูม อ.ศรีมหาโพธิ จ.ปราจีนบุรี 25140",
    "description_en": "Tha Tum, Si Maha Phot, Prachin Buri 25140"
  },
  {
    "name": "โรงแรม ทวิน อินน์",
    "name_en": "Twin Inn Hotel",
    "latitude": 7.87828087806702,
    "longitude": 98.3861893415451,
    "description": "74/15-20 ถนนพูนผล ต.ตลาดเหนือ อ.เมืองภูเก็ต จ.ภูเก็ต 83000",
    "description_en": "74/15-20 Phunphon Rd. Talat Nuea Muang Phuket Phuket 83000"
  },
  {
    "name": "โรงแรม ทองธารา เฮ้าส์ บูติค",
    "name_en": "Thongtara House Boutique Hotel",
    "latitude": 13.6423116276004,
    "longitude": 100.633358806372,
    "description": "86 หมู่ 5 ซอยศรีด่าน 9/1 ต.สำโรงเหนือ อ.เมืองสมุทรปราการ จ.สมุทรปราการ 10270",
    "description_en": "86 Moo 5 Soi Si Dan 9/1, Samrong Nuea, Mueang Samut Prakan, Samut Prakan 10270"
  },
  {
    "name": "โรงแรม ทอมสัน เรสซิเดนซ์",
    "name_en": "Thomson Hotels Residences",
    "latitude": 13.6688120947991,
    "longitude": 100.614376813173,
    "description": "บางนา-ตราด 4 (ซอยอิสระนิเวศน์) แขวงบางนา เขตบางนา กรุงเทพมหานคร 10260",
    "description_en": "Bang Na -Trat 4 (Soi Itsara Niwet), Bang Na, Bang Na, Bangkok 10260"
  },
  {
    "name": "โรงแรม ทอแสง",
    "name_en": "โรงแรม ทอแสง",
    "latitude": 16.951909,
    "longitude": 104.724789,
    "description": "ธาตุพนม ธาตุพนม จ.นครพนม 48110",
    "description_en": "That Phanom, That Phanom, Nakhon Phanom 48110"
  },
  {
    "name": "โรงแรม ทาโคล่า รีสอร์ท แอนด์ สปา",
    "name_en": "The Tacola Resort & Spa",
    "latitude": 8.8819420337677,
    "longitude": 98.2672280073166,
    "description": "93 ม.3 ต.เกาะคอเขา (เกาะกา) อ.ตะกั่วป่า จ.พังงา 82190",
    "description_en": "93 Moo3 Ko Kho Khao (Ko Ka) Ta Kua Pa Phangnga 82190"
  },
  {
    "name": "โรงแรม ทินิดี ภูเก็ต (บมจ. เอ็ม บี เค รีสอร์ท)",
    "name_en": "โรงแรม ทินิดี ภูเก็ต (บมจ. เอ็ม บี เค รีสอร์ท)",
    "latitude": 7.922347,
    "longitude": 98.337462,
    "description": "กะทู้ กะทู้ จ.ภูเก็ต 83120",
    "description_en": "Kathu, Kathu, Phuket 83120"
  },
  {
    "name": "โรงแรม ทินิดี แอด ภูเก็ต",
    "name_en": "Tinidee Hotel@Phuket",
    "latitude": 7.92287281359036,
    "longitude": 98.3359837395159,
    "description": "ทางหลวงจังหวัดหมายเลข 4020 ต.กะทู้ อ.กะทู้ จ.ภูเก็ต 83120",
    "description_en": "Provincial Highway 4020 Kathu Krathu Phuket 83120"
  },
  {
    "name": "โรงแรม ทินิดี โฮเต็ล แอท บางกอก กอล์ฟ คลับ",
    "name_en": "โรงแรม ทินิดี โฮเต็ล แอท บางกอก กอล์ฟ คลับ",
    "latitude": 13.981904,
    "longitude": 100.542204,
    "description": "บางกะดี เมืองปทุมธานี จ.ปทุมธานี 12000",
    "description_en": "Bang Kadi, Mueang Pathum Thani, Pathum Thani 12000"
  },
  {
    "name": "โรงแรม ที พัทยา",
    "name_en": "T PATTAYA HOTEL",
    "latitude": 12.943334850297,
    "longitude": 100.89326351881,
    "description": "ต.หนองปรือ อ.บางละมุง จ.ชลบุรี 20150",
    "description_en": "Nong Prue, Bang Lamung, Chon Buri 20150"
  },
  {
    "name": "โรงแรม ที เฮอริเทจ",
    "name_en": "T.Heritage Hotel",
    "latitude": 18.7855873171698,
    "longitude": 98.984572738409,
    "description": "ถนนราชมรรคา ต.พระสิงห์ อ.เมืองเชียงใหม่ จ.เชียงใหม่ 50200",
    "description_en": "Ratcha Makkha Rd., Phra Sing, Mueang Chiang Mai, Chiang Mai 50200"
  },
  {
    "name": "โรงแรม ที แอนด์ บี อพาร์ทเมนท์",
    "name_en": "โรงแรม ที แอนด์ บี อพาร์ทเมนท์",
    "latitude": 7.551242,
    "longitude": 99.611906,
    "description": "ซอยวิเศษกุล 7 ทับเที่ยง เมืองตรัง จ.ตรัง 92000",
    "description_en": "Soi Wi Set Kun 7, Thap Thiang, Mueang Trang, Trang 92000"
  },
  {
    "name": "โรงแรม ที.พี.เพลส พังงา",
    "name_en": "T.P Place Hotel Phangnga",
    "latitude": 8.44091113115412,
    "longitude": 98.5264393687248,
    "description": "ต.ท้ายช้าง อ.เมืองพังงา จ.พังงา 82000",
    "description_en": "Thai Chang, Mueang Phangnga, Phangnga 82000"
  },
  {
    "name": "โรงแรม ทีอาร์ ร็อค ฮิลล์",
    "name_en": "TR ROCK HILL HOTEL",
    "latitude": 6.99457867486765,
    "longitude": 100.503621697426,
    "description": "726 ถนนทวัรัตน์ ต.คอหงส์ อ.หาดใหญ่ จ.สงขลา 90110",
    "description_en": "Thawi Rat Rd., Kho Hong, Hat Yai, Songkhla 90110"
  },
  {
    "name": "โรงแรม ทีเค พาเลซ แอนด์ คอนเวนชั่น",
    "name_en": "TK. Palace Hotel & Convention",
    "latitude": 13.892224766648,
    "longitude": 100.562061667442,
    "description": "ซอยแจ้งวัฒนะ 15 แขวงทุ่งสองห้อง เขตหลักสี่ กรุงเทพมหานคร 10210",
    "description_en": "Soi Chaeng Watthana 15, Thung Song Hong, Lak Si, Bangkok 10210"
  },
  {
    "name": "โรงแรม ทีเอ็ม แลนด์ เซอร์วิสด์",
    "name_en": "TM Land Serviced Hotel",
    "latitude": 14.3220848998699,
    "longitude": 100.631396756469,
    "description": "99/8 หมู่ 4 ต.สามเรือน อ.บางปะอิน จ.พระนครศรีอยุธยา 13210",
    "description_en": "Sam Ruean Bang Pa-in Phra Nakhon Si Ayutthaya 13210"
  },
  {
    "name": "โรงแรม ทุ่งตะโก รีสอร์ท",
    "name_en": "Tungtago Resort Hotel",
    "latitude": 10.1354391266783,
    "longitude": 99.0948624908924,
    "description": "ต.ทุ่งตะไคร อ.ทุ่งตะโก จ.ชุมพร 86220",
    "description_en": "Thung Takhrai, Thung Tako, Chumphon 86220"
  },
  {
    "name": "โรงแรม ทุ่งหลวงการ์เดนส์",
    "name_en": "โรงแรม ทุ่งหลวงการ์เดนส์",
    "latitude": 10.510259,
    "longitude": 99.132827,
    "description": "วังไผ่ เมืองชุมพร จ.ชุมพร 86000",
    "description_en": "Wang Phai, Mueang Chumphon, Chumphon 86000"
  },
  {
    "name": "โรงแรม ทู ซีซั่น",
    "name_en": "Two Season Hotel",
    "latitude": 9.20226234813226,
    "longitude": 99.87220287323,
    "description": "ทางหลวงแผ่นดินหมายเลข 4232 ต.ขนอม อ.ขนอม จ.นครศรีธรรมราช 80210",
    "description_en": "National Highway 4232, Khanom, Khanom, Nakhon Si Thammarat 80210"
  },
  {
    "name": "โรงแรม ทูคำ พาร์ค",
    "name_en": "2 Come Park",
    "latitude": 19.09860326324,
    "longitude": 100.806530267,
    "description": "ต.ท่าวังผา อ.ท่าวังผา จ.น่าน 55140",
    "description_en": "Tha Wang Pha, Tha Wang Pha, Nan 55140"
  },
  {
    "name": "โรงแรม ท็อป นอร์ธ",
    "name_en": "Top North Hotel",
    "latitude": 18.7868544348207,
    "longitude": 98.992926464606,
    "description": "41 ถนนมูลเมือง ต.พระสิงห์ อ.เมืองเชียงใหม่ จ.เชียงใหม่ 50100",
    "description_en": "41 Mun Mueang Rd. Phra Sing Muang Chiang Mai Chiang Mai 50100"
  },
  {
    "name": "โรงแรม ท็อปอินน์",
    "name_en": "Top Inn Hotel",
    "latitude": 14.3301411834234,
    "longitude": 100.626879930496,
    "description": "ต.คานหาม อ.อุทัย จ.พระนครศรีอยุธยา 13210",
    "description_en": "Khan Ham, Uthai, Phra Nakhon Si Ayutthaya 13210"
  },
  {
    "name": "โรงแรม ท่ามาจัน",
    "name_en": "Tamajun Hotel",
    "latitude": 12.6121835346889,
    "longitude": 102.113786637783,
    "description": "248 ถนนสุขาภิบาล ต.วัดใหม่ อ.เมืองจันทบุรี จ.จันทบุรี 22000",
    "description_en": "248 Connecting road, Wat Mai, Mueang Chanthaburi, Chanthaburi 22000"
  },
  {
    "name": "โรงแรม ธนู ริเวอร์ รีสอร์ท",
    "name_en": "โรงแรม ธนู ริเวอร์ รีสอร์ท",
    "latitude": 12.886971,
    "longitude": 99.659271,
    "description": "แก่งกระจาน แก่งกระจาน จ.เพชรบุรี 76170",
    "description_en": "Kaeng Krachan, Kaeng Krachan, Phetchaburi 76170"
  },
  {
    "name": "โรงแรม นครจันทร์ธานี",
    "name_en": "โรงแรม นครจันทร์ธานี",
    "latitude": 12.455294,
    "longitude": 102.225705,
    "description": "ถนนเทศบาล 9 ขลุง ขลุง จ.จันทบุรี 22110",
    "description_en": "Thetsaban 9 Rd., Khlung, Khlung, Chanthaburi 22110"
  },
  {
    "name": "โรงแรม นครเถิน",
    "name_en": "Nakron Tern Hotel",
    "latitude": 17.6313647459346,
    "longitude": 99.2390379171512,
    "description": "187/5 หมู่หมู่ 7 ถนนสายเอเซีย ตำบลล้อมแรด อำเภอเถิน ลำปาง 52160",
    "description_en": "Mae Pa Thoen Lampang 52160"
  },
  {
    "name": "โรงแรม นรากานต์ บูติก โฮเทล เกาะเต่า",
    "name_en": "Narakaan Boutique Hotel Koh Tao",
    "latitude": 10.0910121202469,
    "longitude": 99.8273241519928,
    "description": "3/40-43 หมู่ 1 ต.เกาะเต่า (เกาะนางญวน) อ.เกาะพะงัน จ.สุราษฎร์ธานี 84280",
    "description_en": "3/40-43 Moo 1 ko Tao (Ko Nang Yuan) Ko Phangan Surat Thani 84280"
  },
  {
    "name": "โรงแรม นราวรรณ หัวหิน",
    "name_en": "Narawan Hotel, Hua Hin",
    "latitude": 12.5546067268426,
    "longitude": 99.958470761776,
    "description": "ถนนบ่อนไก่ ต.หัวหิน อ.หัวหิน จ.ประจวบคีรีขันธ์ 77110",
    "description_en": "Bon Kai Rd. Hua Hin Hua Hin Prachuap Khiri Khan 77110"
  },
  {
    "name": "โรงแรม นว ชีวา",
    "name_en": "Nawa Sheeva Hotel",
    "latitude": 18.789325167296,
    "longitude": 98.9902710914612,
    "description": "184/2 ถนนราชภาคินัย ต.ศรีภูมิ อ.เมืองเชียงใหม่ จ.เชียงใหม่ 50200",
    "description_en": "184/2 Ratcha Phakhinai Rd., Si Phum, Mueang Chiang Mai, Chiang Mai 50200"
  },
  {
    "name": "โรงแรม นวรัฐ เชียงใหม่",
    "name_en": "Nawarat Chiang Mai: Boutique Living",
    "latitude": 18.787162899971,
    "longitude": 99.0057796239853,
    "description": "30-38  ถนนเจริญเมือง ต.วัดเกต อ.เมืองเชียงใหม่ จ.เชียงใหม่ 50000",
    "description_en": "30-38  Charoen Mueang Rd. Wang Ket Muang Chiang Mai Chiang Mai 50000"
  },
  {
    "name": "โรงแรม นอนชิลล์ เขาใหญ่",
    "name_en": "Norn Chill Hotel Khaoyai",
    "latitude": 14.6412855294679,
    "longitude": 101.413288861513,
    "description": "91/8 หมู่ 8 ต.หนองน้ำแดง อ.ปากช่อง จ.นครราชสีมา 30130",
    "description_en": "91/8 Moo 8, Nong Nam Daeng, Pak Chong, Nakhon Ratchasima 30130"
  },
  {
    "name": "โรงแรม นอนดอน",
    "name_en": "NonDon",
    "latitude": 13.9231878153324,
    "longitude": 100.597195923328,
    "description": "สรงประภา 1 แขวงดอนเมือง เขตดอนเมือง กรุงเทพมหานคร 10210",
    "description_en": "Song Prapha 1, Don Mueang, Don Mueang, Bangkok 10210"
  },
  {
    "name": "โรงแรม นอร์ท วินด์",
    "name_en": "Nordwind Hotel Chiangmai",
    "latitude": 18.7788020946867,
    "longitude": 98.9957106113434,
    "description": "ต.หายยา อ.เมืองเชียงใหม่ จ.เชียงใหม่ 50100",
    "description_en": "Hai Ya, Mueang Chiang Mai, Chiang Mai 50100"
  },
  {
    "name": "โรงแรม นัฐมาศ",
    "name_en": "NATTHAMAT RESORT",
    "latitude": 17.4158520131786,
    "longitude": 101.726491749287,
    "description": "ต.นาโป่ง อ.เมืองเลย จ.เลย 42000",
    "description_en": "Na Pong, Mueang Loei, Loei 42000"
  },
  {
    "name": "โรงแรม นันทรา หัวหิน",
    "name_en": "Nantra Huahin",
    "latitude": 12.5768109752078,
    "longitude": 99.9565824866295,
    "description": "ถนนแนบเคหาสน์ ต.หัวหิน อ.หัวหิน จ.ประจวบคีรีขันธ์ 77110",
    "description_en": "Naepkhehat Rd., Hua Hin, Hua Hin, Prachuap Khiri Khan 77110"
  },
  {
    "name": "โรงแรม นันทรา เดอ ดิลีกซ์",
    "name_en": "Nantra de Deluxe",
    "latitude": 7.9642242193222,
    "longitude": 98.9571779966354,
    "description": "153 ม.4 ต.ตลิ่งชัน อ.เหนือคลอง จ.กระบี่ 81130",
    "description_en": "153 Moo 4 Taling Chan Nuea Khlong Krabi 81130"
  },
  {
    "name": "โรงแรม นากระตาม รีสอร์ท",
    "name_en": "Na Kratam Resort Hotel",
    "latitude": 10.6157993828697,
    "longitude": 99.1731588542461,
    "description": "ถนนเพชรเกษม ต.นากระตาม อ.ท่าแซะ จ.ชุมพร 86140",
    "description_en": "Phet Kasem Rd., Na Kratam, Tha Sae, Chumphon 86140"
  },
  {
    "name": "โรงแรม นาข่าบุรี รีสอร์ท",
    "name_en": "nakhaburi",
    "latitude": 17.5351840240392,
    "longitude": 102.79952286243,
    "description": "ทางหลวงชนบทหมายเลข 7013 ต.นาข่า อ.เมืองอุดรธานี จ.อุดรธานี 41000",
    "description_en": "Rural Road 7013 Na Kha Muang Udon Thani Udon Thani 41000"
  },
  {
    "name": "โรงแรม นาค นครา",
    "name_en": "Nak Nakara Hotel",
    "latitude": 19.9105538174561,
    "longitude": 99.8355504870415,
    "description": "ถนนอุตรกิจ ต.เวียง อ.เมืองเชียงราย จ.เชียงราย 57000",
    "description_en": "Uttarakit Rd., Wiang, Mueang Chiang Rai, Chiang Rai 57000"
  },
  {
    "name": "โรงแรม นาคา ดรีม",
    "name_en": "Naka Dream Hotel",
    "latitude": 12.5977555331091,
    "longitude": 99.9470096826553,
    "description": "ซอยหัวหิน 32 ต.หัวหิน อ.หัวหิน จ.ประจวบคีรีขันธ์ 77110",
    "description_en": "Soi Hua Hin 32, Hua Hin, Hua Hin, Prachuap Khiri Khan 77110"
  },
  {
    "name": "โรงแรม นาคา ภูเก็ต",
    "name_en": "The Naka Phuket",
    "latitude": 7.9258641422082,
    "longitude": 98.2671837508678,
    "description": "1/18, 1/20  ต.กมลา อ.กะทู้ จ.ภูเก็ต 83000",
    "description_en": "1/18, 1/20  Kammala, Krathu, Phuket 83000"
  },
  {
    "name": "โรงแรม นาพู่ รีสอร์ท",
    "name_en": "Naphoo Resort",
    "latitude": 17.6008224559959,
    "longitude": 102.7945125103,
    "description": "ถนนมิตรภาพ ต.นาพู่ อ.เพ็ญ จ.อุดรธานี 41150",
    "description_en": "Mittraphap Rd., Na Phu, Phen, Udon Thani 41150"
  },
  {
    "name": "โรงแรม นามู ปาย",
    "name_en": "Namu Hotel",
    "latitude": 19.3588779443867,
    "longitude": 98.4444281458855,
    "description": "ถนนเทศบาล 1 ต.เวียงใต้ อ.ปาย จ.แม่ฮ่องสอน 58130",
    "description_en": "Thetsaban 1 Rd., Wiang Tai, Pai, Mae Hong Son 58130"
  },
  {
    "name": "โรงแรม นารา",
    "name_en": "Narra Hotel",
    "latitude": 13.891766505858,
    "longitude": 100.562567263842,
    "description": "ซอยแจ้งวัฒนะ 13 แขวงทุ่งสองห้อง เขตหลักสี่ กรุงเทพมหานคร 10210",
    "description_en": "Soi Chaeng Watthana 13, Thung Song Hong, Lak Si, Bangkok 10210"
  },
  {
    "name": "โรงแรม นารี",
    "name_en": "Naree Hotel",
    "latitude": 16.3439307232217,
    "longitude": 103.318377435207,
    "description": "ต.โคกพระ อ.กันทรวิชัย จ.มหาสารคาม 44150",
    "description_en": "Khok Phra, Kanthara Wichai, Maha Sarakham 44150"
  },
  {
    "name": "โรงแรม นารีรัตน์",
    "name_en": "Narirat Hotel",
    "latitude": 12.7819757805736,
    "longitude": 101.649466738856,
    "description": "ทางหลวงชนบทหมายเลข 7064 ต.ทางเกวียน อ.แกลง จ.ระยอง 21110",
    "description_en": "Rural Road 7064 Thang Kwian Klang Rayong 21110"
  },
  {
    "name": "โรงแรม นาโหนด รีสอร์ท",
    "name_en": "Na Not Resort Hotel",
    "latitude": 7.4897034604493,
    "longitude": 100.063577145338,
    "description": "ต.นาโหนด อ.เมืองพัทลุง จ.พัทลุง 93000",
    "description_en": "Na Not, Mueang Phatthalung, Phatthalung 93000"
  },
  {
    "name": "โรงแรม นิกโก้ กรุงเทพฯ",
    "name_en": "Hotel Nikko Bangkok",
    "latitude": 13.7251054250304,
    "longitude": 100.579262673855,
    "description": "ถนนทองหล่อ (สุขุมวิท 55) แขวงคลองตันเหนือ เขตวัฒนา กรุงเทพมหานคร 10250",
    "description_en": "Thonglor Road (Soi Sukhumwit 55), Khlong Tan Nuea, Vadhana, Bangkok 10250"
  },
  {
    "name": "โรงแรม นิคาซิโอ้",
    "name_en": "Nicasio Hotel",
    "latitude": 10.5010249693594,
    "longitude": 99.1523838043213,
    "description": "ทางหลวงแผ่นดินหมายเลข 327 ต.วังไผ่ อ.เมืองชุมพร จ.ชุมพร 86000",
    "description_en": "National Highway 327, Wang Phai, Mueang Chumphon, Chumphon 86000"
  },
  {
    "name": "โรงแรม นิภา รีสอร์ท ภูเก็ต",
    "name_en": "Nipa Resort",
    "latitude": 7.89625704288483,
    "longitude": 98.3024454116821,
    "description": "ทางหลวงชนบทหมายเลข 7021 ต.ป่าตอง อ.กะทู้ จ.ภูเก็ต 83150",
    "description_en": "Rural Road 7021 Pa Tong Krathu Phuket 83150"
  },
  {
    "name": "โรงแรม นิว นอร์ดิก คอนเซพท์ มาร์คัส",
    "name_en": "New Nordic Hotel Concept Marcus",
    "latitude": 12.91561,
    "longitude": 100.86241,
    "description": "389/89 ม.12 พระตำหนักซอย4 บริเวณเขาพระตำหนัก ถ.พระตำหนัก ต.หนองปรือ อ.บางละมุง พัทยา",
    "description_en": "389/89 M.12 Pratamnak Soi 4, Pattaya, Chonburi, 20150"
  },
  {
    "name": "โรงแรม นิวฟูจิ",
    "name_en": "New Fuji Hotel",
    "latitude": 13.7256877802009,
    "longitude": 100.518454313278,
    "description": "ถนนสุรวงศ์ แขวงสุริยวงศ์ เขตบางรัก กรุงเทพมหานคร 10500",
    "description_en": "Surawong Rd., Suriyawong, Bang Rak, Bangkok 10500"
  },
  {
    "name": "โรงแรม นิวอัมรินทร์ บังกะโล",
    "name_en": "New Ammarin Bungalow",
    "latitude": 16.1594142902905,
    "longitude": 103.357940018177,
    "description": "ถนนแจ้งสนิท ต.เขวา อ.เมืองมหาสารคาม จ.มหาสารคาม 44000",
    "description_en": "Rural Road 2005, Khwao, Muang Mahasarakham, Maha Sarakham 44000"
  },
  {
    "name": "โรงแรม นิวาศ",
    "name_en": "Niwat Hote",
    "latitude": 15.0018313663636,
    "longitude": 103.108266577673,
    "description": "ถนนนิวาศ ต.ในเมือง อ.เมืองบุรีรัมย์ จ.บุรีรัมย์ 31000",
    "description_en": "Niwat Rd. Nai Mueang Muang Burirum Buri Ram 31000"
  },